{
	"type": "FeatureCollection",
	"features": [{
		"type": "Feature",
		"geometry": {
			"type": "Point",
			"coordinates": [-122.6181700, 45.4796000]
		},
		"properties": {
			"rest_name": "Tom Yum Thai Cuisine"
			,"address": "4309 SE  Woodstock Blvd "
			,"rest_type": "Restaurant"
			,"rest_status": "Permitted"
			,"last_inspection": "Jul 2, 2018"
			,"avg_score": "88"
			,"last_score": "84"
			,"rest_id": "000F2B5DC671602B8825824E007975DE"
		}
	},{
		"type": "Feature",
		"geometry": {
			"type": "Point",
			"coordinates": [-122.6947500, 45.5268500]
		},
		"properties": {
			"rest_name": "Sansai Japenese Grill"
			,"address": "539 NW  21st Ave "
			,"rest_type": "Restaurant"
			,"rest_status": "Permitted"
			,"last_inspection": "Sep 14, 2017"
			,"avg_score": "93"
			,"last_score": "95"
			,"rest_id": "002784B67315B2948825824E0079771A"
		}
	},{
		"type": "Feature",
		"geometry": {
			"type": "Point",
			"coordinates": [-122.6677700, 45.5317000]
		},
		"properties": {
			"rest_name": "Levy Cart Sevens Nacho"
			,"address": "1 N  Center Court St "
			,"rest_type": "Class 3"
			,"rest_status": "Permitted"
			,"last_inspection": "Apr 17, 2018"
			,"avg_score": "98"
			,"last_score": "0"
			,"rest_id": "0035D4BE7AC7B1498825824E0079714A"
		}
	},{
		"type": "Feature",
		"geometry": {
			"type": "Point",
			"coordinates": [-122.6645000, 45.5153100]
		},
		"properties": {
			"rest_name": "Plaza Del Toro"
			,"address": "105 SE  Taylor St "
			,"rest_type": "Restaurant"
			,"rest_status": "Permitted"
			,"last_inspection": "Dec 30, 2017"
			,"avg_score": "99"
			,"last_score": "100"
			,"rest_id": "006C55358A21CC578825824E007986FB"
		}
	},{
		"type": "Feature",
		"geometry": {
			"type": "Point",
			"coordinates": [-122.6473900, 45.5290000]
		},
		"properties": {
			"rest_name": "Taqueria La Nayarita"
			,"address": "847 NE  19th Ave 350 "
			,"rest_type": "Class 4"
			,"rest_status": "Permitted"
			,"last_inspection": "Dec 29, 2017"
			,"last_score": "0"
			,"rest_id": "007DD028F67E668D8825824E00798AA9"
		}
	},{
		"type": "Feature",
		"geometry": {
			"type": "Point",
			"coordinates": [-122.6544200, 45.5052300]
		},
		"properties": {
			"rest_name": "Funhouse Lounge"
			,"address": "2432 SE  11th Ave "
			,"rest_type": "Restaurant"
			,"rest_status": "Permitted"
			,"last_inspection": "Dec 21, 2017"
			,"avg_score": "95"
			,"last_score": "100"
			,"rest_id": "009A9802F0FCDF8E8825824E007981A6"
		}
	},{
		"type": "Feature",
		"geometry": {
			"type": "Point",
			"coordinates": [-122.6004193, 45.5686158]
		},
		"properties": {
			"rest_name": "Starbucks Coffee, #22003"
			,"address": "6020 NE  Columbia Blvd "
			,"rest_type": "Restaurant"
			,"rest_status": "Permitted"
			,"last_inspection": "Nov 15, 2018"
			,"avg_score": "100"
			,"last_score": "100"
			,"rest_id": "00AEFB69E31D9B448825824E007984BF"
		}
	},{
		"type": "Feature",
		"geometry": {
			"type": "Point",
			"coordinates": [-122.6631400, 45.5283700]
		},
		"properties": {
			"rest_name": "OCC Portland Roasting Hall D"
			,"address": "777 NE  Martin Luther King Jr Blvd "
			,"rest_type": "Restaurant"
			,"rest_status": "Permitted"
			,"last_inspection": "Sep 8, 2018"
			,"avg_score": "99"
			,"last_score": "100"
			,"rest_id": "00B838EB140959AE8825824E00797887"
		}
	},{
		"type": "Feature",
		"geometry": {
			"type": "Point",
			"coordinates": [-122.5358600, 45.5352700]
		},
		"properties": {
			"rest_name": "Akira Sushi"
			,"address": "1718 NE  122nd Ave "
			,"rest_type": "Restaurant"
			,"rest_status": "Permitted"
			,"last_inspection": "Nov 15, 2018"
			,"avg_score": "81"
			,"last_score": "0"
			,"rest_id": "00C2703D896138068825824E00798C74"
		}
	},{
		"type": "Feature",
		"geometry": {
			"type": "Point",
			"coordinates": [-122.6942900, 45.5314500]
		},
		"properties": {
			"rest_name": "Paleys Place"
			,"address": "1204 NW  21st Ave "
			,"rest_type": "Restaurant"
			,"rest_status": "Permitted"
			,"last_inspection": "Oct 17, 2018"
			,"avg_score": "98"
			,"last_score": "100"
			,"rest_id": "00D42BFF1C474D2C8825824E00796FFE"
		}
	},{
		"type": "Feature",
		"geometry": {
			"type": "Point",
			"coordinates": [-122.6950700, 45.5330299]
		},
		"properties": {
			"rest_name": "Queue Coffee"
			,"address": "2112 NW  Quimby Street "
			,"rest_type": "Restaurant"
			,"rest_status": "Permitted"
			,"last_inspection": "Oct 23, 2018"
			,"avg_score": "100"
			,"last_score": "100"
			,"rest_id": "00D6D656FFCEA39F88258271007A5692"
		}
	},{
		"type": "Feature",
		"geometry": {
			"type": "Point",
			"coordinates": [-122.6370300, 45.5238299]
		},
		"properties": {
			"rest_name": "Fonda Rosa"
			,"address": "108 NE  28th Ave "
			,"rest_type": "Restaurant"
			,"rest_status": "Permitted"
			,"last_inspection": "Aug 14, 2018"
			,"avg_score": "98"
			,"last_score": "0"
			,"rest_id": "00E9CD5E51E77DB68825824E00797C21"
		}
	},{
		"type": "Feature",
		"geometry": {
			"type": "Point",
			"coordinates": [-122.3864241, 45.5188751]
		},
		"properties": {
			"rest_name": "Coffee Quest"
			,"address": "26820 SE  Stark St "
			,"rest_type": "Class 2"
			,"rest_status": "Permitted"
			,"last_inspection": "Sep 27, 2018"
			,"avg_score": "100"
			,"last_score": "0"
			,"rest_id": "00ED5E21FB94BDEB8825824E00798846"
		}
	},{
		"type": "Feature",
		"geometry": {
			"type": "Point",
			"coordinates": [-122.6764900, 45.5207900]
		},
		"properties": {
			"rest_name": "Korean Twist on 5th"
			,"rest_type": "Class 4"
			,"rest_status": "Permitted"
			,"last_inspection": "Sep 19, 2018"
			,"avg_score": "83"
			,"last_score": "0"
			,"rest_id": "0108430A51C23A818825824E00797E5C"
		}
	},{
		"type": "Feature",
		"geometry": {
			"type": "Point",
			"coordinates": [-122.7051100, 45.5774100]
		},
		"properties": {
			"rest_name": "Bong Teriyaki"
			,"address": "3709 N  Lombard St "
			,"rest_type": "Restaurant"
			,"rest_status": "Permitted"
			,"last_inspection": "Sep 13, 2018"
			,"avg_score": "100"
			,"last_score": "100"
			,"rest_id": "010A55EB060FC11D8825824E00797BEB"
		}
	},{
		"type": "Feature",
		"geometry": {
			"type": "Point",
			"coordinates": [-122.6631400, 45.5283700]
		},
		"properties": {
			"rest_name": "OCC Concessions Hall B"
			,"address": "777 NE  Martin Luther King Jr Blvd "
			,"rest_type": "Restaurant"
			,"rest_status": "Permitted"
			,"last_inspection": "Sep 8, 2018"
			,"avg_score": "99"
			,"last_score": "100"
			,"rest_id": "011025FAAA1D3DA38825824E0079722A"
		}
	},{
		"type": "Feature",
		"geometry": {
			"type": "Point",
			"coordinates": [-122.7156500, 45.4550900]
		},
		"properties": {
			"rest_name": "Slowbomb Coffee"
			,"address": "9620 SW  Barbur Boulevard "
			,"rest_type": "Class 3"
			,"rest_status": "Permitted"
			,"last_inspection": "Oct 3, 2018"
			,"last_score": "0"
			,"rest_id": "011ECA6EA1C67016882582B9007285EA"
		}
	},{
		"type": "Feature",
		"geometry": {
			"type": "Point",
			"coordinates": [-122.5792500, 45.5381500]
		},
		"properties": {
			"rest_name": "New Happy Fortune"
			,"address": "2145 NE  82nd Ave "
			,"rest_type": "Restaurant"
			,"rest_status": "Permitted"
			,"last_inspection": "Oct 1, 2018"
			,"avg_score": "95"
			,"last_score": "0"
			,"rest_id": "012AC4E2593BF17E8825824E00796E14"
		}
	},{
		"type": "Feature",
		"geometry": {
			"type": "Point",
			"coordinates": [-122.5792500, 45.5381500]
		},
		"properties": {
			"rest_name": "New Happy Fortune"
			,"address": "2145 NE  82nd Ave "
			,"rest_type": "Restaurant"
			,"rest_status": "Permitted"
			,"last_inspection": "Oct 1, 2018"
			,"avg_score": "95"
			,"last_score": "85"
			,"rest_id": "012AC4E2593BF17E8825824E00796E14"
		}
	},{
		"type": "Feature",
		"geometry": {
			"type": "Point",
			"coordinates": [-122.6482300, 45.5226600]
		},
		"properties": {
			"rest_name": "Fire on the Mountain Buffalo Wings"
			,"address": "1708 E  Burnside St "
			,"rest_type": "Restaurant"
			,"rest_status": "Permitted"
			,"last_inspection": "Apr 10, 2018"
			,"avg_score": "97"
			,"last_score": "100"
			,"rest_id": "012EA02E3AD5D55A8825824E00797C77"
		}
	},{
		"type": "Feature",
		"geometry": {
			"type": "Point",
			"coordinates": [-122.6157100, 45.5382000]
		},
		"properties": {
			"rest_name": "Joule Crafted Nutrition"
			,"address": "4615 NE  Sandy Blvd "
			,"rest_type": "Restaurant"
			,"rest_status": "Permitted"
			,"last_inspection": "Aug 31, 2018"
			,"avg_score": "100"
			,"last_score": "100"
			,"rest_id": "01319418F7D73D328825828F00774A77"
		}
	},{
		"type": "Feature",
		"geometry": {
			"type": "Point",
			"coordinates": [-122.7134900, 45.4676700]
		},
		"properties": {
			"rest_name": "Sarah Bellum's Bakery & Workshop"
			,"address": "7828 SW  Capitol Highway "
			,"rest_type": "Restaurant"
			,"rest_status": "Awaiting Additional Information"
			,"last_inspection": "Jan 28, 2019"
			,"avg_score": "100"
			,"last_score": "100"
			,"rest_id": "014F2795759CCBDE882583900075C5F9"
		}
	},{
		"type": "Feature",
		"geometry": {
			"type": "Point",
			"coordinates": [-122.6754400, 45.5169900]
		},
		"properties": {
			"rest_name": "Aprisa Mexican Cuisine"
			,"address": "827 SW  2nd Ave "
			,"rest_type": "Restaurant"
			,"rest_status": "Permitted"
			,"last_inspection": "Sep 11, 2018"
			,"avg_score": "85"
			,"last_score": "0"
			,"rest_id": "01794C72B2AAD6EB8825824E00798DBB"
		}
	},{
		"type": "Feature",
		"geometry": {
			"type": "Point",
			"coordinates": [-122.5949900, 45.4972400]
		},
		"properties": {
			"rest_name": "Local 66 Bar and Grill"
			,"address": "6618 SE  Powell Blvd "
			,"rest_type": "Restaurant"
			,"rest_status": "Permitted"
			,"last_inspection": "May 15, 2018"
			,"avg_score": "90"
			,"last_score": "94"
			,"rest_id": "0184C04795BCF8518825824E00797886"
		}
	},{
		"type": "Feature",
		"geometry": {
			"type": "Point",
			"coordinates": [-122.6803200, 45.5485000]
		},
		"properties": {
			"rest_name": "Kaiser Permanente Dining"
			,"address": "3600 N  Interstate Ave "
			,"rest_type": "Restaurant"
			,"rest_status": "Permitted"
			,"last_inspection": "Oct 4, 2018"
			,"avg_score": "93"
			,"last_score": "97"
			,"rest_id": "018F98A6C3DFDB8B8825824E0079702B"
		}
	},{
		"type": "Feature",
		"geometry": {
			"type": "Point",
			"coordinates": [-122.3989400, 45.5201600]
		},
		"properties": {
			"rest_name": "Pizza Hut Delivery, #2919"
			,"address": "3149 SW  257th Ave "
			,"rest_type": "Restaurant"
			,"rest_status": "Permitted"
			,"last_inspection": "Oct 30, 2018"
			,"avg_score": "98"
			,"last_score": "100"
			,"rest_id": "01D1AEA55BC78F0C8825824E007983A0"
		}
	},{
		"type": "Feature",
		"geometry": {
			"type": "Point",
			"coordinates": [-122.6771500, 45.5122000]
		},
		"properties": {
			"rest_name": "Market Street Salad Bar & Deli"
			,"address": "105 SW  Market St "
			,"rest_type": "Restaurant"
			,"rest_status": "Permitted"
			,"last_inspection": "Aug 9, 2018"
			,"avg_score": "93"
			,"last_score": "100"
			,"rest_id": "01D3794769BD73DE8825824E00797007"
		}
	},{
		"type": "Feature",
		"geometry": {
			"type": "Point",
			"coordinates": [-122.6756900, 45.5194400]
		},
		"properties": {
			"rest_name": "Java Man on 4th"
			,"address": "504 SW  4th Ave "
			,"rest_type": "Restaurant"
			,"rest_status": "Permitted"
			,"last_inspection": "Jul 24, 2018"
			,"avg_score": "98"
			,"last_score": "0"
			,"rest_id": "01E043D18ADA11E58825824E0079746A"
		}
	},{
		"type": "Feature",
		"geometry": {
			"type": "Point",
			"coordinates": [-122.6619300, 45.5511600]
		},
		"properties": {
			"rest_name": "Bushel and Peck Bake Shop"
			,"address": "3907 NE  Martin Luther King Jr Blvd "
			,"rest_type": "Restaurant"
			,"rest_status": "Permitted"
			,"last_inspection": "Sep 25, 2018"
			,"avg_score": "94"
			,"last_score": "0"
			,"rest_id": "022614D40CB5EFEC8825824E00797CCC"
		}
	},{
		"type": "Feature",
		"geometry": {
			"type": "Point",
			"coordinates": [-122.6306500, 45.5050100]
		},
		"properties": {
			"rest_name": "St Honore Bakery Division"
			,"address": "3333 SE  Division St "
			,"rest_type": "Restaurant"
			,"rest_status": "Permitted"
			,"last_inspection": "Sep 14, 2018"
			,"avg_score": "90"
			,"last_score": "0"
			,"rest_id": "027A3CB8E5BCF9928825824E007982E9"
		}
	},{
		"type": "Feature",
		"geometry": {
			"type": "Point",
			"coordinates": [-122.6808230, 45.6111707]
		},
		"properties": {
			"rest_name": "Starbucks Coffee 17747 Jantzen Beach"
			,"address": "12235 N  Center Ave "
			,"rest_type": "Restaurant"
			,"rest_status": "Permitted"
			,"last_inspection": "Sep 10, 2018"
			,"avg_score": "99"
			,"last_score": "97"
			,"rest_id": "028157A2E77B6F638825824E007982A9"
		}
	},{
		"type": "Feature",
		"geometry": {
			"type": "Point",
			"coordinates": [-122.6813900, 45.5213500]
		},
		"properties": {
			"rest_name": "Tida Thai Cart"
			,"address": "15710 NE  Glisan Street "
			,"rest_type": "Class 4"
			,"rest_status": "Permitted"
			,"last_inspection": "May 30, 2018"
			,"last_score": "0"
			,"rest_id": "02BD1EFE77B1E97D8825826000687BD6"
		}
	},{
		"type": "Feature",
		"geometry": {
			"type": "Point",
			"coordinates": [-122.5115300, 45.5606500]
		},
		"properties": {
			"rest_name": "Flor De Guelaguetza"
			,"address": "5211 NE  148th Ave "
			,"rest_type": "Class 4"
			,"rest_status": "Permitted"
			,"last_inspection": "Mar 29, 2018"
			,"avg_score": "79"
			,"last_score": "0"
			,"rest_id": "02C8342D8CCD91DF8825824E007983D0"
		}
	},{
		"type": "Feature",
		"geometry": {
			"type": "Point",
			"coordinates": [-122.4680300, 45.4889600]
		},
		"properties": {
			"rest_name": "Cedarville Inn"
			,"address": "3659 W  Powell Loop "
			,"rest_type": "Restaurant"
			,"rest_status": "Permitted"
			,"last_inspection": "Nov 9, 2018"
			,"avg_score": "93"
			,"last_score": "100"
			,"rest_id": "02CF5D50928CFA168825824E007970D8"
		}
	},{
		"type": "Feature",
		"geometry": {
			"type": "Point",
			"coordinates": [-122.4313600, 45.5035500]
		},
		"properties": {
			"rest_name": "Casie's Cafe"
			,"address": "835 N  Main Ave "
			,"rest_type": "Restaurant"
			,"rest_status": "Surveillance"
			,"last_inspection": "Sep 12, 2018"
			,"avg_score": "98"
			,"last_score": "100"
			,"rest_id": "02D85C45E8DA8C998825824E00798801"
		}
	},{
		"type": "Feature",
		"geometry": {
			"type": "Point",
			"coordinates": [-122.6633400, 45.5175500]
		},
		"properties": {
			"rest_name": "Tacos El Pastorcito"
			,"address": "215 SE  Morrison St "
			,"rest_type": "Class 4"
			,"rest_status": "Permitted"
			,"last_inspection": "Dec 1, 2017"
			,"last_score": "0"
			,"rest_id": "02DD668408330C368825824E00798350"
		}
	},{
		"type": "Feature",
		"geometry": {
			"type": "Point",
			"coordinates": [-122.6758200, 45.5544700]
		},
		"properties": {
			"rest_name": "Pastrami Zombie Warehouse, Class IV"
			,"address": "4237 N  Mississippi Ave "
			,"rest_type": "Warehouse"
			,"rest_status": "Permitted"
			,"last_inspection": "Oct 4, 2018"
			,"avg_score": "100"
			,"last_score": "0"
			,"rest_id": "02EDF99B13D175ED8825824E00798D28"
		}
	},{
		"type": "Feature",
		"geometry": {
			"type": "Point",
			"coordinates": [-122.7271000, 45.4504200]
		},
		"properties": {
			"rest_name": "Happy Fortune"
			,"address": "10420 SW  Barbur Blvd "
			,"rest_type": "Restaurant"
			,"rest_status": "Permitted"
			,"last_inspection": "Apr 26, 2016"
			,"avg_score": "90"
			,"last_score": "0"
			,"rest_id": "02F3A2478CB2C3598825824E00796F7D"
		}
	},{
		"type": "Feature",
		"geometry": {
			"type": "Point",
			"coordinates": [-122.6816600, 45.5241700]
		},
		"properties": {
			"rest_name": "Starbucks Coffee Co, #15510"
			,"address": "1039 NW  Couch St "
			,"rest_type": "Restaurant"
			,"rest_status": "Permitted"
			,"last_inspection": "Sep 20, 2018"
			,"avg_score": "100"
			,"last_score": "100"
			,"rest_id": "02FA0F482377B0AF8825824E0079802D"
		}
	},{
		"type": "Feature",
		"geometry": {
			"type": "Point",
			"coordinates": [-122.6772200, 45.5176200]
		},
		"properties": {
			"rest_name": "Einstein Bros Bagels, #3576"
			,"address": "845 SW  4th Ave "
			,"rest_type": "Restaurant"
			,"rest_status": "Permitted"
			,"last_inspection": "Jul 31, 2018"
			,"avg_score": "98"
			,"last_score": "94"
			,"rest_id": "03187B6137B8F20A8825824E007973C0"
		}
	},{
		"type": "Feature",
		"geometry": {
			"type": "Point",
			"coordinates": [-122.6610400, 45.5307400]
		},
		"properties": {
			"rest_name": "Citizen Baker"
			,"address": "1089 NE  Grand Ave "
			,"rest_type": "Restaurant"
			,"rest_status": "Permitted"
			,"last_inspection": "May 14, 2018"
			,"avg_score": "98"
			,"last_score": "95"
			,"rest_id": "034AD5AAEEAA53048825824E007975A3"
		}
	},{
		"type": "Feature",
		"geometry": {
			"type": "Point",
			"coordinates": [-122.6369000, 45.5295100]
		},
		"properties": {
			"rest_name": "Katie O Briens"
			,"address": "2809 NE  Sandy Blvd "
			,"rest_type": "Restaurant"
			,"rest_status": "Permitted"
			,"last_inspection": "Aug 15, 2018"
			,"avg_score": "97"
			,"last_score": "0"
			,"rest_id": "03583C9A2E3743358825824E00796E61"
		}
	},{
		"type": "Feature",
		"geometry": {
			"type": "Point",
			"coordinates": [-122.6526900, 45.4656000]
		},
		"properties": {
			"rest_name": "Opa Pizzaria"
			,"address": "8000 SE  13th Ave "
			,"rest_type": "Restaurant"
			,"rest_status": "Permitted"
			,"last_inspection": "Nov 1, 2018"
			,"avg_score": "86"
			,"last_score": "0"
			,"rest_id": "0358FBDC8BE55BC08825828D007EC53B"
		}
	},{
		"type": "Feature",
		"geometry": {
			"type": "Point",
			"coordinates": [-122.6905600, 45.5226800]
		},
		"properties": {
			"rest_name": "Hotlips Pizza Civic"
			,"address": "633 SW  19th Ave "
			,"rest_type": "Restaurant"
			,"rest_status": "Permitted"
			,"last_inspection": "Jul 6, 2018"
			,"avg_score": "92"
			,"last_score": "86"
			,"rest_id": "03AC4CEFE23F0B898825824E00797D85"
		}
	},{
		"type": "Feature",
		"geometry": {
			"type": "Point",
			"coordinates": [-122.6106100, 45.5054600]
		},
		"properties": {
			"rest_name": "Smaaken II"
			,"address": "5029 SE  Division Street "
			,"rest_type": "Class 4"
			,"rest_status": "Permitted"
			,"last_inspection": "Apr 26, 2018"
			,"avg_score": "100"
			,"last_score": "0"
			,"rest_id": "03D3FEC07FD01B4E8825824E0079893E"
		}
	},{
		"type": "Feature",
		"geometry": {
			"type": "Point",
			"coordinates": [-122.6793400, 45.5623600]
		},
		"properties": {
			"rest_name": "Portland ICe Cream (The) 2, Class III---EVENTS"
			,"address": "1210 N  Killingsworth St "
			,"rest_type": "Class 3"
			,"rest_status": "Permitted"
			,"last_inspection": "Dec 1, 2017"
			,"avg_score": "99"
			,"last_score": "100"
			,"rest_id": "03D9C66F983051348825824E00798A96"
		}
	},{
		"type": "Feature",
		"geometry": {
			"type": "Point",
			"coordinates": [-122.6782500, 45.5235399]
		},
		"properties": {
			"rest_name": "Feed The Mass"
			,"address": "34 NW  8th Ave "
			,"rest_type": "Restaurant"
			,"rest_status": "Permitted"
			,"last_inspection": "Jul 18, 2018"
			,"avg_score": "99"
			,"last_score": "97"
			,"rest_id": "03E07F1C6D27457C8825824E00798DA1"
		}
	},{
		"type": "Feature",
		"geometry": {
			"type": "Point",
			"coordinates": [-122.6876800, 45.5291300]
		},
		"properties": {
			"rest_name": "Spring Roll Mobile Kitchen Commissary"
			,"address": "833 NW  16th Ave "
			,"rest_type": "Commissary"
			,"rest_status": "Permitted"
			,"last_inspection": "Jun 27, 2018"
			,"avg_score": "100"
			,"last_score": "0"
			,"rest_id": "03F06F093C8401528825824E00796FE5"
		}
	},{
		"type": "Feature",
		"geometry": {
			"type": "Point",
			"coordinates": [-122.6819300, 45.5108000]
		},
		"properties": {
			"rest_name": "Ole Latte Coffee, #1"
			,"rest_type": "Class 4"
			,"rest_status": "Permitted"
			,"last_inspection": "Oct 23, 2018"
			,"avg_score": "90"
			,"last_score": "0"
			,"rest_id": "0400B9D21A0AE7508825824E007985F9"
		}
	},{
		"type": "Feature",
		"geometry": {
			"type": "Point",
			"coordinates": [-122.6430200, 45.5772700]
		},
		"properties": {
			"rest_name": "Kings Deli"
			,"address": "2207 NE  Columbia Blvd "
			,"rest_type": "Restaurant"
			,"rest_status": "Permitted"
			,"last_inspection": "Jan 30, 2018"
			,"avg_score": "92"
			,"last_score": "92"
			,"rest_id": "04049ECBE198CC698825824E00796D94"
		}
	},{
		"type": "Feature",
		"geometry": {
			"type": "Point",
			"coordinates": [-122.5781700, 45.5025199]
		},
		"properties": {
			"rest_name": "Yan Zi Lou"
			,"address": "2788 SE  82nd Ave 103 "
			,"rest_type": "Restaurant"
			,"rest_status": "Permitted"
			,"last_inspection": "Nov 29, 2018"
			,"avg_score": "81"
			,"last_score": "0"
			,"rest_id": "0406E7B9E95F68F48825824E007976BE"
		}
	},{
		"type": "Feature",
		"geometry": {
			"type": "Point",
			"coordinates": [-122.5623176, 45.5746601]
		},
		"properties": {
			"rest_name": "Wendy's, #11364"
			,"address": "9695 NE  Cascades Pkwy "
			,"rest_type": "Restaurant"
			,"rest_status": "Permitted"
			,"last_inspection": "Sep 12, 2018"
			,"avg_score": "98"
			,"last_score": "97"
			,"rest_id": "0409D3DCCBF007948825824E0079843C"
		}
	},{
		"type": "Feature",
		"geometry": {
			"type": "Point",
			"coordinates": [-122.6812300, 45.5098700]
		},
		"properties": {
			"rest_name": "Cocina Chopollos Warehouse, Class IV"
			,"rest_type": "Warehouse"
			,"rest_status": "Permitted"
			,"last_inspection": "Aug 8, 2018"
			,"last_score": "0"
			,"rest_id": "04267CB738D5E3E18825824E00797F03"
		}
	},{
		"type": "Feature",
		"geometry": {
			"type": "Point",
			"coordinates": [-122.6876100, 45.5767600]
		},
		"properties": {
			"rest_name": "Farmers Barn Tavern"
			,"address": "7421 N  Denver Ave "
			,"rest_type": "Restaurant"
			,"rest_status": "Permitted"
			,"last_inspection": "Jul 30, 2018"
			,"avg_score": "97"
			,"last_score": "95"
			,"rest_id": "042AED7BA10358B58825824E00796C97"
		}
	},{
		"type": "Feature",
		"geometry": {
			"type": "Point",
			"coordinates": [-122.6839200, 45.5304200]
		},
		"properties": {
			"rest_name": "Chipotle Mexican Grill, #1358"
			,"address": "1201 NW  Lovejoy St "
			,"rest_type": "Restaurant"
			,"rest_status": "Permitted"
			,"last_inspection": "Nov 7, 2018"
			,"avg_score": "100"
			,"last_score": "100"
			,"rest_id": "0442797C364B4B478825824E00797E73"
		}
	},{
		"type": "Feature",
		"geometry": {
			"type": "Point",
			"coordinates": [-122.6533000, 45.4673900]
		},
		"properties": {
			"rest_name": "Hurry Back Ice Cream,"
			,"address": "7875 SE  13th Ave "
			,"rest_type": "Class 3"
			,"rest_status": "Permitted"
			,"last_inspection": "Apr 24, 2018"
			,"avg_score": "100"
			,"last_score": "0"
			,"rest_id": "044C7083B1D31A208825824E00798751"
		}
	},{
		"type": "Feature",
		"geometry": {
			"type": "Point",
			"coordinates": [-122.6373200, 45.4905000]
		},
		"properties": {
			"rest_name": "Bird and The Bear"
			,"address": "2801 SE  Holgate Blvd "
			,"rest_type": "Restaurant"
			,"rest_status": "Permitted"
			,"last_inspection": "Nov 1, 2018"
			,"avg_score": "95"
			,"last_score": "0"
			,"rest_id": "04540AC8BE7B63E28825824E0079888E"
		}
	},{
		"type": "Feature",
		"geometry": {
			"type": "Point",
			"coordinates": [-122.6823800, 45.5187900]
		},
		"properties": {
			"rest_name": "Subway, #41964"
			,"address": "822 SW  10th Ave "
			,"rest_type": "Restaurant"
			,"rest_status": "Permitted"
			,"last_inspection": "Oct 11, 2018"
			,"avg_score": "97"
			,"last_score": "97"
			,"rest_id": "045B4185AC0297738825824E00798439"
		}
	},{
		"type": "Feature",
		"geometry": {
			"type": "Point",
			"coordinates": [-122.6852700, 45.5011200]
		},
		"properties": {
			"rest_name": "Shriners Hospital"
			,"address": "3101 SW  Sam Jackson Park Rd "
			,"rest_type": "Restaurant"
			,"rest_status": "Permitted"
			,"last_inspection": "Oct 12, 2018"
			,"avg_score": "98"
			,"last_score": "95"
			,"rest_id": "045FDE7A08CCCBE98825824E00797026"
		}
	},{
		"type": "Feature",
		"geometry": {
			"type": "Point",
			"coordinates": [-122.6533500, 45.5124400]
		},
		"properties": {
			"rest_name": "Bottle Rocket"
			,"address": "1207 SE  Hawthorne Blvd "
			,"rest_type": "Class 4"
			,"rest_status": "Permitted"
			,"last_inspection": "Dec 22, 2017"
			,"last_score": "0"
			,"rest_id": "04779DCDE998437C8825824E00798C60"
		}
	},{
		"type": "Feature",
		"geometry": {
			"type": "Point",
			"coordinates": [-122.6676000, 45.5487600]
		},
		"properties": {
			"rest_name": "Bread and Honey Cafe"
			,"address": "3530 N  Vancouver Ave "
			,"rest_type": "Restaurant"
			,"rest_status": "Permitted"
			,"last_inspection": "Apr 5, 2018"
			,"avg_score": "93"
			,"last_score": "97"
			,"rest_id": "048BC48298BAE9F88825824E007987F6"
		}
	},{
		"type": "Feature",
		"geometry": {
			"type": "Point",
			"coordinates": [-122.6083700, 45.4950600]
		},
		"properties": {
			"rest_name": "Ishtar Gate, #2"
			,"address": "5222 SE  Foster Rd "
			,"rest_type": "Restaurant"
			,"rest_status": "Permitted"
			,"last_inspection": "Jul 19, 2018"
			,"avg_score": "89"
			,"last_score": "86"
			,"rest_id": "049E04B44A33CA808825824E007975D5"
		}
	},{
		"type": "Feature",
		"geometry": {
			"type": "Point",
			"coordinates": [-122.6786000, 45.5115900]
		},
		"properties": {
			"rest_name": "Murata"
			,"address": "200 SW  Market St "
			,"rest_type": "Restaurant"
			,"rest_status": "Permitted"
			,"last_inspection": "Aug 9, 2018"
			,"avg_score": "95"
			,"last_score": "0"
			,"rest_id": "049F75FBDA67822E8825824E00797217"
		}
	},{
		"type": "Feature",
		"geometry": {
			"type": "Point",
			"coordinates": [-122.6926400, 45.5327600]
		},
		"properties": {
			"rest_name": "Reef Kitchens #2"
			,"rest_type": "Class 4"
			,"rest_status": "Permitted"
			,"last_inspection": "Aug 21, 2019"
			,"last_score": "0"
			,"rest_id": "04BBA126EE3EA8B6882584200073534A"
		}
	},{
		"type": "Feature",
		"geometry": {
			"type": "Point",
			"coordinates": [-122.6619300, 45.5489700]
		},
		"properties": {
			"rest_name": "Akadi PDX"
			,"address": "3601 NE  Martin Luther King Jr Blvd "
			,"rest_type": "Restaurant"
			,"rest_status": "Permitted"
			,"last_inspection": "Sep 12, 2018"
			,"avg_score": "100"
			,"last_score": "100"
			,"rest_id": "04ECD490B24CDD7B8825824E007987EA"
		}
	},{
		"type": "Feature",
		"geometry": {
			"type": "Point",
			"coordinates": [-122.4997100, 45.5039900]
		},
		"properties": {
			"rest_name": "Grind"
			,"address": "15826 SE  Division St "
			,"rest_type": "Restaurant"
			,"rest_status": "Permitted"
			,"last_inspection": "Aug 17, 2018"
			,"avg_score": "97"
			,"last_score": "0"
			,"rest_id": "04F084393026701C88258287007E5D79"
		}
	},{
		"type": "Feature",
		"geometry": {
			"type": "Point",
			"coordinates": [-122.6634200, 45.5199400]
		},
		"properties": {
			"rest_name": "Produce Row Cafe"
			,"address": "204 SE  Oak St "
			,"rest_type": "Restaurant"
			,"rest_status": "Permitted"
			,"last_inspection": "Apr 19, 2018"
			,"avg_score": "94"
			,"last_score": "100"
			,"rest_id": "04FB55F48A75C2288825824E00796E8F"
		}
	},{
		"type": "Feature",
		"geometry": {
			"type": "Point",
			"coordinates": [-122.6581600, 45.5715300]
		},
		"properties": {
			"rest_name": "Oregon Public House"
			,"address": "700 NE  Dekum St "
			,"rest_type": "Restaurant"
			,"rest_status": "Permitted"
			,"last_inspection": "Sep 14, 2018"
			,"avg_score": "98"
			,"last_score": "91"
			,"rest_id": "05085848D28EED208825824E00798092"
		}
	},{
		"type": "Feature",
		"geometry": {
			"type": "Point",
			"coordinates": [-122.5577900, 45.5265300]
		},
		"properties": {
			"rest_name": "Heavenly Donuts"
			,"address": "504 NE  102nd Ave "
			,"rest_type": "Restaurant"
			,"rest_status": "Permitted"
			,"last_inspection": "Nov 5, 2018"
			,"avg_score": "100"
			,"last_score": "100"
			,"rest_id": "05112A1367ED21FF8825824E00796C1A"
		}
	},{
		"type": "Feature",
		"geometry": {
			"type": "Point",
			"coordinates": [-122.5795900, 45.4636500]
		},
		"properties": {
			"rest_name": "Cartlandia"
			,"address": "8145 SE  82nd Ave "
			,"rest_type": "Class 3"
			,"rest_status": "Permitted"
			,"last_inspection": "Oct 27, 2018"
			,"avg_score": "100"
			,"last_score": "0"
			,"rest_id": "052B5789C72A999F8825824E00798229"
		}
	},{
		"type": "Feature",
		"geometry": {
			"type": "Point",
			"coordinates": [-122.6816900, 45.5112200]
		},
		"properties": {
			"rest_name": "Saigon Kitchen 2, Class III"
			,"rest_type": "Class 3"
			,"rest_status": "Permitted"
			,"last_inspection": "Oct 23, 2018"
			,"avg_score": "81"
			,"last_score": "0"
			,"rest_id": "05333170658C989F8825824E007969DC"
		}
	},{
		"type": "Feature",
		"geometry": {
			"type": "Point",
			"coordinates": [-122.6989000, 45.5294300]
		},
		"properties": {
			"rest_name": "Function"
			,"address": "919 NW  23rd Ave "
			,"rest_type": "Restaurant"
			,"rest_status": "Permitted"
			,"last_inspection": "Apr 2, 2018"
			,"avg_score": "100"
			,"last_score": "100"
			,"rest_id": "0537E1260633054C8825824E00798B40"
		}
	},{
		"type": "Feature",
		"geometry": {
			"type": "Point",
			"coordinates": [-122.6305800, 45.5120500]
		},
		"properties": {
			"rest_name": "Bundys Bagels"
			,"rest_type": "Class 4"
			,"rest_status": "Surveillance"
			,"last_inspection": "Nov 18, 2017"
			,"avg_score": "100"
			,"last_score": "100"
			,"rest_id": "054AB9BAA133859888258392000564FB"
		}
	},{
		"type": "Feature",
		"geometry": {
			"type": "Point",
			"coordinates": [-122.6670000, 45.5397700]
		},
		"properties": {
			"rest_name": "Breadwinner Cafe"
			,"address": "2323 N  Williams Ave "
			,"rest_type": "Restaurant"
			,"rest_status": "Permitted"
			,"last_inspection": "Jul 18, 2018"
			,"avg_score": "92"
			,"last_score": "92"
			,"rest_id": "0550460A1BC27D748825824E00798C5C"
		}
	},{
		"type": "Feature",
		"geometry": {
			"type": "Point",
			"coordinates": [-122.7082400, 45.5378200]
		},
		"properties": {
			"rest_name": "Fuego 7, Class III"
			,"address": "2701 NW  Vaughn St "
			,"rest_type": "Class 3"
			,"rest_status": "Permitted"
			,"last_inspection": "Oct 16, 2018"
			,"avg_score": "92"
			,"last_score": "0"
			,"rest_id": "0564A2E9EB4CEE228825824E0079741F"
		}
	},{
		"type": "Feature",
		"geometry": {
			"type": "Point",
			"coordinates": [-122.6872400, 45.5818299]
		},
		"properties": {
			"rest_name": "Swift and Union"
			,"address": "8103 N  Denver Ave "
			,"rest_type": "Restaurant"
			,"rest_status": "Permitted"
			,"last_inspection": "Sep 26, 2018"
			,"avg_score": "96"
			,"last_score": "97"
			,"rest_id": "05665C1B101D27998825824E00798859"
		}
	},{
		"type": "Feature",
		"geometry": {
			"type": "Point",
			"coordinates": [-122.6426000, 45.5592200]
		},
		"properties": {
			"rest_name": "Ciao Vito"
			,"address": "2203 NE  Alberta St "
			,"rest_type": "Restaurant"
			,"rest_status": "Permitted"
			,"last_inspection": "Oct 4, 2017"
			,"avg_score": "95"
			,"last_score": "82"
			,"rest_id": "057349A38C77C8518825824E00797561"
		}
	},{
		"type": "Feature",
		"geometry": {
			"type": "Point",
			"coordinates": [-122.6084700, 45.5686300]
		},
		"properties": {
			"rest_name": "Railside Pub"
			,"address": "5301 NE  Portland Hwy "
			,"rest_type": "Restaurant"
			,"rest_status": "Permitted"
			,"last_inspection": "May 30, 2018"
			,"avg_score": "95"
			,"last_score": "95"
			,"rest_id": "0576F7A0C52AB46C8825824E00796996"
		}
	},{
		"type": "Feature",
		"geometry": {
			"type": "Point",
			"coordinates": [-122.5382200, 45.5667800]
		},
		"properties": {
			"rest_name": "China Wok"
			,"address": "6033 NE  Win Sivers Dr D "
			,"rest_type": "Restaurant"
			,"rest_status": "Permitted"
			,"last_inspection": "Aug 14, 2018"
			,"avg_score": "99"
			,"last_score": "100"
			,"rest_id": "05820DB9EFDCF1B18825824E00797477"
		}
	},{
		"type": "Feature",
		"geometry": {
			"type": "Point",
			"coordinates": [-122.6113100, 45.5053500]
		},
		"properties": {
			"rest_name": "Taqueria Los Gorditos"
			,"address": "2393 SE  50th Ave "
			,"rest_type": "Restaurant"
			,"rest_status": "Permitted"
			,"last_inspection": "Jul 2, 2018"
			,"avg_score": "96"
			,"last_score": "100"
			,"rest_id": "05978CB8783209628825824E00798D1F"
		}
	},{
		"type": "Feature",
		"geometry": {
			"type": "Point",
			"coordinates": [-122.6812300, 45.5098700]
		},
		"properties": {
			"rest_name": "Lupita's Mayan Cuisine"
			,"rest_type": "Class 4"
			,"rest_status": "Permitted"
			,"last_inspection": "Aug 7, 2018"
			,"last_score": "0"
			,"rest_id": "05A8AB54D9D7AC20882582B200715052"
		}
	},{
		"type": "Feature",
		"geometry": {
			"type": "Point",
			"coordinates": [-122.5382400, 45.5601100]
		},
		"properties": {
			"rest_name": "Good World Chinese Restauant and Lounge"
			,"address": "5055 NE  122nd Ave "
			,"rest_type": "Restaurant"
			,"rest_status": "Permitted"
			,"last_inspection": "Oct 3, 2018"
			,"avg_score": "87"
			,"last_score": "97"
			,"rest_id": "05B5D0D450D8C58D8825824E007987C6"
		}
	},{
		"type": "Feature",
		"geometry": {
			"type": "Point",
			"coordinates": [-122.6801900, 45.5168300]
		},
		"properties": {
			"rest_name": "McDonalds 6th Main"
			,"address": "1035 SW  6th Ave "
			,"rest_type": "Restaurant"
			,"rest_status": "Permitted"
			,"last_inspection": "Jul 25, 2018"
			,"avg_score": "96"
			,"last_score": "100"
			,"rest_id": "05D0CC1213482AC58825824E00797095"
		}
	},{
		"type": "Feature",
		"geometry": {
			"type": "Point",
			"coordinates": [-122.6747400, 45.5602000]
		},
		"properties": {
			"rest_name": "Red Fox"
			,"address": "5128 N  Albina Ave "
			,"rest_type": "Restaurant"
			,"rest_status": "Permitted"
			,"last_inspection": "May 8, 2018"
			,"avg_score": "99"
			,"last_score": "100"
			,"rest_id": "05DF72DA21273A0F8825824E00797B66"
		}
	},{
		"type": "Feature",
		"geometry": {
			"type": "Point",
			"coordinates": [-122.6825600, 45.5198500]
		},
		"properties": {
			"rest_name": "Habibi Restaurant"
			,"address": "1012 SW  Morrison St "
			,"rest_type": "Restaurant"
			,"rest_status": "Permitted"
			,"last_inspection": "Nov 21, 2018"
			,"avg_score": "91"
			,"last_score": "92"
			,"rest_id": "05E11C80CFAD6A008825824E0079713B"
		}
	},{
		"type": "Feature",
		"geometry": {
			"type": "Point",
			"coordinates": [-122.6779700, 45.5170000]
		},
		"properties": {
			"rest_name": "Outtakes Quick Cuisine"
			,"address": "900 SW  5th Ave "
			,"rest_type": "Restaurant"
			,"rest_status": "Permitted"
			,"last_inspection": "Sep 4, 2018"
			,"avg_score": "85"
			,"last_score": "0"
			,"rest_id": "06387F65570D45E18825824E00797286"
		}
	},{
		"type": "Feature",
		"geometry": {
			"type": "Point",
			"coordinates": [-122.6727300, 45.5223400]
		},
		"properties": {
			"rest_name": "Valentines"
			,"address": "232 SW  Ankeny St "
			,"rest_type": "Restaurant"
			,"rest_status": "Permitted"
			,"last_inspection": "Jun 16, 2018"
			,"avg_score": "95"
			,"last_score": "90"
			,"rest_id": "064FB3D3268C6FF28825824E00797AD1"
		}
	},{
		"type": "Feature",
		"geometry": {
			"type": "Point",
			"coordinates": [-122.6223700, 45.6006200]
		},
		"properties": {
			"rest_name": "Sextant Bar and Galley"
			,"address": "4035 NE  Marine Dr "
			,"rest_type": "Restaurant"
			,"rest_status": "Permitted"
			,"last_inspection": "Nov 26, 2018"
			,"avg_score": "92"
			,"last_score": "87"
			,"rest_id": "0652860A19BDB0BD8825824E00796A9E"
		}
	},{
		"type": "Feature",
		"geometry": {
			"type": "Point",
			"coordinates": [-122.4738600, 45.5183700]
		},
		"properties": {
			"rest_name": "Las Tarascas Estilo Michoacan"
			,"address": "18340 SE  Stark St "
			,"rest_type": "Class 4"
			,"rest_status": "Permitted"
			,"last_inspection": "Dec 23, 2017"
			,"last_score": "0"
			,"rest_id": "0657C4C3AD43A8D48825824E00796975"
		}
	},{
		"type": "Feature",
		"geometry": {
			"type": "Point",
			"coordinates": [-122.4853600, 45.5042100]
		},
		"properties": {
			"rest_name": "Lariat Tavern"
			,"address": "17238 SE  Division St "
			,"rest_type": "Restaurant"
			,"rest_status": "Permitted"
			,"last_inspection": "Jun 8, 2018"
			,"avg_score": "96"
			,"last_score": "97"
			,"rest_id": "06795D6E04B809A78825824E00796AAC"
		}
	},{
		"type": "Feature",
		"geometry": {
			"type": "Point",
			"coordinates": [-122.5915900, 45.5856400]
		},
		"properties": {
			"rest_name": "PDX Kenny & Zukes Deli"
			,"address": "7000 NE  Airport Way Conc #c "
			,"rest_type": "Restaurant"
			,"rest_status": "Permitted"
			,"last_inspection": "Oct 10, 2018"
			,"avg_score": "97"
			,"last_score": "0"
			,"rest_id": "067970CD325E50538825824E00798A02"
		}
	},{
		"type": "Feature",
		"geometry": {
			"type": "Point",
			"coordinates": [-122.6786355, 45.5150911]
		},
		"properties": {
			"rest_name": "Happy Cup Coffee"
			,"address": "1221 SW  4th Ave "
			,"rest_type": "Restaurant"
			,"rest_status": "Permitted"
			,"last_inspection": "Jul 18, 2018"
			,"avg_score": "95"
			,"last_score": "95"
			,"rest_id": "0693997D0C1E3ED18825824E0079852D"
		}
	},{
		"type": "Feature",
		"geometry": {
			"type": "Point",
			"coordinates": [-122.5772700, 45.4792200]
		},
		"properties": {
			"rest_name": "A Little Nectar"
			,"address": "8320 SE  Woodstock Blvd "
			,"rest_type": "Restaurant"
			,"rest_status": "Permitted"
			,"last_inspection": "Oct 31, 2018"
			,"avg_score": "96"
			,"last_score": "89"
			,"rest_id": "06A59C33465EB5AC8825824E00798BE9"
		}
	},{
		"type": "Feature",
		"geometry": {
			"type": "Point",
			"coordinates": [-122.6828700, 45.5261400]
		},
		"properties": {
			"rest_name": "Starbucks Coffee Pearl District, #466"
			,"address": "1134 NW  Glisan St 108 "
			,"rest_type": "Restaurant"
			,"rest_status": "Permitted"
			,"last_inspection": "Aug 22, 2018"
			,"avg_score": "100"
			,"last_score": "100"
			,"rest_id": "06CB63E167ED466A8825824E00797599"
		}
	},{
		"type": "Feature",
		"geometry": {
			"type": "Point",
			"coordinates": [-122.5997800, 45.5438600]
		},
		"properties": {
			"rest_name": "Pho Corner Restaurant"
			,"address": "6120 NE  Sandy Blvd "
			,"rest_type": "Restaurant"
			,"rest_status": "Permitted"
			,"last_inspection": "Apr 4, 2018"
			,"avg_score": "87"
			,"last_score": "0"
			,"rest_id": "06E4743A3B21CA638825824E00796EA7"
		}
	},{
		"type": "Feature",
		"geometry": {
			"type": "Point",
			"coordinates": [-122.6815400, 45.5263200]
		},
		"properties": {
			"rest_name": "Schmizza Pub & Grub"
			,"address": "1036 NW  Glisan St "
			,"rest_type": "Restaurant"
			,"rest_status": "Permitted"
			,"last_inspection": "Nov 20, 2018"
			,"avg_score": "96"
			,"last_score": "100"
			,"rest_id": "0724DC749FB35C118825824E00797823"
		}
	},{
		"type": "Feature",
		"geometry": {
			"type": "Point",
			"coordinates": [-122.4702700, 45.5187200]
		},
		"properties": {
			"rest_name": "Dutch Bros Coffee"
			,"address": "18710 SE  Stark St "
			,"rest_type": "Restaurant"
			,"rest_status": "Permitted"
			,"last_inspection": "Jun 22, 2018"
			,"avg_score": "96"
			,"last_score": "0"
			,"rest_id": "072E03610D58F1638825824E0079772D"
		}
	},{
		"type": "Feature",
		"geometry": {
			"type": "Point",
			"coordinates": [-122.4105600, 45.5049599]
		},
		"properties": {
			"rest_name": "Dills Coffee Stop, Class III"
			,"address": "2155 NE  Division St "
			,"rest_type": "Class 3"
			,"rest_status": "Permitted"
			,"last_inspection": "Jul 18, 2018"
			,"avg_score": "100"
			,"last_score": "0"
			,"rest_id": "073355CEA1766ED38825824E00798449"
		}
	},{
		"type": "Feature",
		"geometry": {
			"type": "Point",
			"coordinates": [-122.6731600, 45.5257600]
		},
		"properties": {
			"rest_name": "Tao of Tea"
			,"address": "239 NW  Everett St "
			,"rest_type": "Restaurant"
			,"rest_status": "Permitted"
			,"last_inspection": "Jul 18, 2018"
			,"avg_score": "100"
			,"last_score": "100"
			,"rest_id": "07356BEAFA21C5B68825824E00796957"
		}
	},{
		"type": "Feature",
		"geometry": {
			"type": "Point",
			"coordinates": [-122.6535000, 45.5325800]
		},
		"properties": {
			"rest_name": "Sarku Japan/Lloyd Center FC"
			,"address": "2201  Lloyd Center "
			,"rest_type": "Restaurant"
			,"rest_status": "Permitted"
			,"last_inspection": "Nov 14, 2018"
			,"avg_score": "90"
			,"last_score": "0"
			,"rest_id": "073B63B0123BBEA58825824E007971FE"
		}
	},{
		"type": "Feature",
		"geometry": {
			"type": "Point",
			"coordinates": [-122.6299800, 45.5118300]
		},
		"properties": {
			"rest_name": "Peaks PDX, Class III"
			,"address": "3340 SE  Hawthorne Blvd "
			,"rest_type": "Class 3"
			,"rest_status": "Permitted"
			,"last_inspection": "Dec 19, 2017"
			,"avg_score": "95"
			,"last_score": "95"
			,"rest_id": "0756A8B9765F0D758825824E00798BF7"
		}
	},{
		"type": "Feature",
		"geometry": {
			"type": "Point",
			"coordinates": [-122.6697700, 45.4934700]
		},
		"properties": {
			"rest_name": "Old Spaghetti Factory"
			,"address": "715 SW  Bancroft St "
			,"rest_type": "Restaurant"
			,"rest_status": "Permitted"
			,"last_inspection": "Sep 1, 2017"
			,"avg_score": "96"
			,"last_score": "100"
			,"rest_id": "0778B720CB7A5E8A8825824E00796FCA"
		}
	},{
		"type": "Feature",
		"geometry": {
			"type": "Point",
			"coordinates": [-122.6722300, 45.5216400]
		},
		"properties": {
			"rest_name": "Kells Irish Restaurant and Pub"
			,"address": "112 SW  2nd Ave "
			,"rest_type": "Restaurant"
			,"rest_status": "Permitted"
			,"last_inspection": "Oct 17, 2018"
			,"avg_score": "93"
			,"last_score": "94"
			,"rest_id": "0782663386723F268825824E00796F28"
		}
	},{
		"type": "Feature",
		"geometry": {
			"type": "Point",
			"coordinates": [-122.6353600, 45.5226900]
		},
		"properties": {
			"rest_name": "India Grill"
			,"address": "2924 E  Burnside St "
			,"rest_type": "Restaurant"
			,"rest_status": "Permitted"
			,"last_inspection": "Oct 19, 2018"
			,"avg_score": "94"
			,"last_score": "0"
			,"rest_id": "0788798F9C0CB70E8825824E00796F2A"
		}
	},{
		"type": "Feature",
		"geometry": {
			"type": "Point",
			"coordinates": [-122.6563800, 45.5160100]
		},
		"properties": {
			"rest_name": "Rogue"
			,"address": "928 SE  9th Ave "
			,"rest_type": "Restaurant"
			,"rest_status": "Permitted"
			,"last_inspection": "Nov 5, 2018"
			,"avg_score": "99"
			,"last_score": "97"
			,"rest_id": "078964045A0A42A28825824E00798DB7"
		}
	},{
		"type": "Feature",
		"geometry": {
			"type": "Point",
			"coordinates": [-122.6992400, 45.5292900]
		},
		"properties": {
			"rest_name": "Pelican's Waiting Room"
			,"address": "2327 NW  Kearney St "
			,"rest_type": "Restaurant"
			,"rest_status": "Permitted"
			,"last_inspection": "May 8, 2018"
			,"avg_score": "99"
			,"last_score": "100"
			,"rest_id": "07A30CD037F4A8D18825824E0079731F"
		}
	},{
		"type": "Feature",
		"geometry": {
			"type": "Point",
			"coordinates": [-122.5433600, 45.5669200]
		},
		"properties": {
			"rest_name": "Courtyard by Marriot"
			,"address": "11550 NE  Airport Way "
			,"rest_type": "Restaurant"
			,"rest_status": "Permitted"
			,"last_inspection": "Sep 11, 2018"
			,"avg_score": "99"
			,"last_score": "92"
			,"rest_id": "07A5B8E1F765247D8825824E007970E6"
		}
	},{
		"type": "Feature",
		"geometry": {
			"type": "Point",
			"coordinates": [-122.6389400, 45.5281800]
		},
		"properties": {
			"rest_name": "Church"
			,"address": "2600 NE  Sandy Blvd "
			,"rest_type": "Restaurant"
			,"rest_status": "Permitted"
			,"last_inspection": "Jun 13, 2018"
			,"avg_score": "97"
			,"last_score": "100"
			,"rest_id": "07B68AE0D8E54AE08825824E00797B7D"
		}
	},{
		"type": "Feature",
		"geometry": {
			"type": "Point",
			"coordinates": [-122.6716700, 45.5222800]
		},
		"properties": {
			"rest_name": "Mediterranean Express Commissary"
			,"address": "120 SW  Ankeny St "
			,"rest_type": "Restaurant"
			,"rest_status": "Permitted"
			,"last_inspection": "Jun 26, 2018"
			,"avg_score": "100"
			,"last_score": "100"
			,"rest_id": "07B72A74F30CABCF8825824E00798B88"
		}
	},{
		"type": "Feature",
		"geometry": {
			"type": "Point",
			"coordinates": [-122.6211300, 45.4795700]
		},
		"properties": {
			"rest_name": "All Saints Episcopal Church Hot Meals Program"
			,"address": "4033 SE  Woodstock Blvd "
			,"rest_type": "Restaurant"
			,"rest_status": "Permitted"
			,"last_inspection": "Jun 14, 2018"
			,"avg_score": "96"
			,"last_score": "100"
			,"rest_id": "07B7A4FA31A550AD8825824E007982EC"
		}
	},{
		"type": "Feature",
		"geometry": {
			"type": "Point",
			"coordinates": [-122.6631800, 45.5181700]
		},
		"properties": {
			"rest_name": "Rami's Go Cart"
			,"address": "231 SE  Alder St "
			,"rest_type": "Class 4"
			,"rest_status": "Permitted"
			,"last_inspection": "Dec 1, 2017"
			,"last_score": "0"
			,"rest_id": "07BAFB8C557284128825824E007984B1"
		}
	},{
		"type": "Feature",
		"geometry": {
			"type": "Point",
			"coordinates": [-122.6758400, 45.5528400]
		},
		"properties": {
			"rest_name": "SUR---Koi Fusion Mississippi"
			,"address": "4039 N  Mississippi Ave 101 "
			,"rest_type": "Class 4"
			,"rest_status": "Surveillance"
			,"last_inspection": "Feb 7, 2018"
			,"avg_score": "100"
			,"last_score": "100"
			,"rest_id": "07EDFA15DE2EA1518825824E00797FED"
		}
	},{
		"type": "Feature",
		"geometry": {
			"type": "Point",
			"coordinates": [-122.7489500, 45.5898200]
		},
		"properties": {
			"rest_name": "Kung Food Restaurant"
			,"address": "8071 N  Lombard Way "
			,"rest_type": "Restaurant"
			,"rest_status": "Permitted"
			,"last_inspection": "Jul 19, 2018"
			,"avg_score": "94"
			,"last_score": "0"
			,"rest_id": "07EFE8570704551F8825824E00796D86"
		}
	},{
		"type": "Feature",
		"geometry": {
			"type": "Point",
			"coordinates": [-122.5125700, 45.5184400]
		},
		"properties": {
			"rest_name": "5 Estrellas Pupuseria"
			,"address": "600 SE  146th Avenue "
			,"rest_type": "Class 4"
			,"rest_status": "Permitted"
			,"last_inspection": "Aug 9, 2018"
			,"avg_score": "92"
			,"last_score": "0"
			,"rest_id": "07F150262CFB3E168825824E0079896A"
		}
	},{
		"type": "Feature",
		"geometry": {
			"type": "Point",
			"coordinates": [-122.6824000, 45.5225600]
		},
		"properties": {
			"rest_name": "Roxy"
			,"address": "1121 SW  Stark St "
			,"rest_type": "Restaurant"
			,"rest_status": "Permitted"
			,"last_inspection": "Sep 18, 2018"
			,"avg_score": "90"
			,"last_score": "87"
			,"rest_id": "07F6FDF4E496A7E08825824E00796D13"
		}
	},{
		"type": "Feature",
		"geometry": {
			"type": "Point",
			"coordinates": [-122.6807700, 45.5204000]
		},
		"properties": {
			"rest_name": "Fooshion, Class IV"
			,"rest_type": "Class 4"
			,"rest_status": "Permitted"
			,"last_inspection": "Jul 25, 2018"
			,"avg_score": "96"
			,"last_score": "0"
			,"rest_id": "0801E4FE492A5A398825824E00797EB9"
		}
	},{
		"type": "Feature",
		"geometry": {
			"type": "Point",
			"coordinates": [-122.6417900, 45.5347800]
		},
		"properties": {
			"rest_name": "Rose and Thistle Pub"
			,"address": "2314 NE  Broadway "
			,"rest_type": "Restaurant"
			,"rest_status": "Permitted"
			,"last_inspection": "Feb 27, 2018"
			,"avg_score": "95"
			,"last_score": "92"
			,"rest_id": "0813C79F2D161FF08825824E007969AA"
		}
	},{
		"type": "Feature",
		"geometry": {
			"type": "Point",
			"coordinates": [-122.6487500, 45.5629300]
		},
		"properties": {
			"rest_name": "Handsome Pizza and Seastar Bakery"
			,"address": "1603 NE  Killingsworth St "
			,"rest_type": "Restaurant"
			,"rest_status": "Permitted"
			,"last_inspection": "Feb 8, 2018"
			,"avg_score": "97"
			,"last_score": "97"
			,"rest_id": "0845026F5BC33FFD8825824E007988E3"
		}
	},{
		"type": "Feature",
		"geometry": {
			"type": "Point",
			"coordinates": [-122.6593800, 45.5224100]
		},
		"properties": {
			"rest_name": "Pearl Catering Kitchen"
			,"address": "609 SE  Ankeny St Ste B "
			,"rest_type": "Restaurant"
			,"rest_status": "Permitted"
			,"last_inspection": "Nov 29, 2017"
			,"avg_score": "98"
			,"last_score": "95"
			,"rest_id": "0850AFF632575F5F8825824E0079852E"
		}
	},{
		"type": "Feature",
		"geometry": {
			"type": "Point",
			"coordinates": [-122.6438400, 45.5045800]
		},
		"properties": {
			"rest_name": "Bar Avignon"
			,"address": "2138 SE  Division St "
			,"rest_type": "Restaurant"
			,"rest_status": "Permitted"
			,"last_inspection": "Aug 24, 2018"
			,"avg_score": "94"
			,"last_score": "100"
			,"rest_id": "0858B047268DF2378825824E007974C8"
		}
	},{
		"type": "Feature",
		"geometry": {
			"type": "Point",
			"coordinates": [-122.6203687, 45.5481651]
		},
		"properties": {
			"rest_name": "Bagel Land"
			,"address": "4118 NE  Fremont St "
			,"rest_type": "Restaurant"
			,"rest_status": "Permitted"
			,"last_inspection": "May 2, 2018"
			,"avg_score": "92"
			,"last_score": "92"
			,"rest_id": "0868A77549E055A28825824E007989A3"
		}
	},{
		"type": "Feature",
		"geometry": {
			"type": "Point",
			"coordinates": [-122.6555700, 45.5307600]
		},
		"properties": {
			"rest_name": "Doubletree by Hilton Portland"
			,"address": "1000 NE  Multnomah St "
			,"rest_type": "Restaurant"
			,"rest_status": "Permitted"
			,"last_inspection": "May 10, 2018"
			,"avg_score": "99"
			,"last_score": "100"
			,"rest_id": "0869622BE19AE75C8825824E00796E8E"
		}
	},{
		"type": "Feature",
		"geometry": {
			"type": "Point",
			"coordinates": [-122.7422300, 45.5876200]
		},
		"properties": {
			"rest_name": "Grind Coffee"
			,"address": "7316 N  Lombard St "
			,"rest_type": "Class 4"
			,"rest_status": "Permitted"
			,"last_inspection": "Aug 21, 2018"
			,"avg_score": "95"
			,"last_score": "0"
			,"rest_id": "08749BC57FAB913B8825824E00797BFF"
		}
	},{
		"type": "Feature",
		"geometry": {
			"type": "Point",
			"coordinates": [-122.5886300, 45.4859700]
		},
		"properties": {
			"rest_name": "J-Linas Catering"
			,"address": "7238 SE  Foster Rd "
			,"rest_type": "Restaurant"
			,"rest_status": "Out of Business"
			,"last_inspection": "Feb 7, 2018"
			,"avg_score": "100"
			,"last_score": "100"
			,"rest_id": "087AE644367E9FA58825824E00798C5B"
		}
	},{
		"type": "Feature",
		"geometry": {
			"type": "Point",
			"coordinates": [-122.5382500, 45.5124799]
		},
		"properties": {
			"rest_name": "La Osita, Class IV"
			,"address": "1427 SE  122nd Ave "
			,"rest_type": "Class 4"
			,"rest_status": "Permitted"
			,"last_inspection": "Jul 31, 2018"
			,"avg_score": "100"
			,"last_score": "0"
			,"rest_id": "088615F15094CBAE8825824E00798D8A"
		}
	},{
		"type": "Feature",
		"geometry": {
			"type": "Point",
			"coordinates": [-122.6470300, 45.4852100]
		},
		"properties": {
			"rest_name": "Queso PDX"
			,"address": "5145 SE  Mcloughlin Blvd "
			,"rest_type": "Restaurant"
			,"rest_status": "Surveillance"
			,"last_inspection": "Aug 24, 2017"
			,"avg_score": "100"
			,"last_score": "100"
			,"rest_id": "08BD2765BD40EF068825824E00798C3A"
		}
	},{
		"type": "Feature",
		"geometry": {
			"type": "Point",
			"coordinates": [-122.4000949, 45.5062552]
		},
		"properties": {
			"rest_name": "Dutch Bros Coffee"
			,"address": "1239 NE  Kane Dr "
			,"rest_type": "Restaurant"
			,"rest_status": "Permitted"
			,"last_inspection": "Aug 17, 2018"
			,"avg_score": "94"
			,"last_score": "92"
			,"rest_id": "08D9A7B2677601AF8825824E00798B48"
		}
	},{
		"type": "Feature",
		"geometry": {
			"type": "Point",
			"coordinates": [-122.6451200, 45.5258800]
		},
		"properties": {
			"rest_name": "Blue Diamond Bar & Grill (The)"
			,"address": "2016 NE  Sandy Blvd "
			,"rest_type": "Restaurant"
			,"rest_status": "Permitted"
			,"last_inspection": "Oct 23, 2018"
			,"avg_score": "97"
			,"last_score": "89"
			,"rest_id": "08E514A789567F808825824E00796E5F"
		}
	},{
		"type": "Feature",
		"geometry": {
			"type": "Point",
			"coordinates": [-122.5339900, 45.5044899]
		},
		"properties": {
			"rest_name": "Taco Bell 32935,"
			,"address": "12605 SE  Division St "
			,"rest_type": "Restaurant"
			,"rest_status": "Permitted"
			,"last_inspection": "Nov 16, 2018"
			,"avg_score": "98"
			,"last_score": "97"
			,"rest_id": "08F2016684AA05C88825824E00796BCC"
		}
	},{
		"type": "Feature",
		"geometry": {
			"type": "Point",
			"coordinates": [-122.4312200, 45.5096400]
		},
		"properties": {
			"rest_name": "Bella's Pub & Grub"
			,"address": "1888 NW  Fairview Dr "
			,"rest_type": "Restaurant"
			,"rest_status": "Permitted"
			,"last_inspection": "May 10, 2018"
			,"avg_score": "98"
			,"last_score": "95"
			,"rest_id": "0926EB72B201DB868825824E00797B8F"
		}
	},{
		"type": "Feature",
		"geometry": {
			"type": "Point",
			"coordinates": [-122.7486300, 45.5895300]
		},
		"properties": {
			"rest_name": "Big Dilla (The)"
			,"address": "8037 N  Lombard Street "
			,"rest_type": "Class 3"
			,"rest_status": "Permitted"
			,"last_inspection": "May 29, 2018"
			,"last_score": "0"
			,"rest_id": "0952DC6D6E5D3A87882582650081941C"
		}
	},{
		"type": "Feature",
		"geometry": {
			"type": "Point",
			"coordinates": [-122.6087200, 45.4970300]
		},
		"properties": {
			"rest_name": "Midpoint Food & Drink"
			,"address": "3524 SE  52nd Ave "
			,"rest_type": "Restaurant"
			,"rest_status": "Permitted"
			,"last_inspection": "Apr 18, 2018"
			,"avg_score": "90"
			,"last_score": "90"
			,"rest_id": "0964FF8771DE45018825824E00797AA0"
		}
	},{
		"type": "Feature",
		"geometry": {
			"type": "Point",
			"coordinates": [-122.5198900, 45.5283000]
		},
		"properties": {
			"rest_name": "Von Ebert Brewing"
			,"address": "14021 NE  Glisan St "
			,"rest_type": "Restaurant"
			,"rest_status": "Permitted"
			,"last_inspection": "Aug 22, 2018"
			,"avg_score": "89"
			,"last_score": "0"
			,"rest_id": "0977B1DA626AD1A688258287005E6817"
		}
	},{
		"type": "Feature",
		"geometry": {
			"type": "Point",
			"coordinates": [-122.6123500, 45.4972900]
		},
		"properties": {
			"rest_name": "La Bamba Restaurante"
			,"address": "4908 SE  Powell Blvd "
			,"rest_type": "Restaurant"
			,"rest_status": "Permitted"
			,"last_inspection": "Oct 4, 2018"
			,"avg_score": "90"
			,"last_score": "100"
			,"rest_id": "0985B358BD50473E8825824E007978F6"
		}
	},{
		"type": "Feature",
		"geometry": {
			"type": "Point",
			"coordinates": [-122.4296700, 45.5088700]
		},
		"properties": {
			"rest_name": "Black Bear Diner"
			,"address": "105 NE  Burnside Rd "
			,"rest_type": "Restaurant"
			,"rest_status": "Permitted"
			,"last_inspection": "Mar 27, 2018"
			,"avg_score": "92"
			,"last_score": "84"
			,"rest_id": "099A9B0C057F11C38825824E00796BA0"
		}
	},{
		"type": "Feature",
		"geometry": {
			"type": "Point",
			"coordinates": [-122.6997000, 45.5352600]
		},
		"properties": {
			"rest_name": "Wild Wasabe"
			,"address": "2330 NW  Thurman St "
			,"rest_type": "Restaurant"
			,"rest_status": "Permitted"
			,"last_inspection": "Apr 5, 2018"
			,"avg_score": "90"
			,"last_score": "94"
			,"rest_id": "09A1BE0AB70B11C18825824E007971B6"
		}
	},{
		"type": "Feature",
		"geometry": {
			"type": "Point",
			"coordinates": [-122.6374149, 45.5218797]
		},
		"properties": {
			"rest_name": "Captured Beer Bus,"
			,"address": "113 SE  28th Ave "
			,"rest_type": "Class 3"
			,"rest_status": "Permitted"
			,"last_inspection": "Oct 18, 2018"
			,"avg_score": "100"
			,"last_score": "0"
			,"rest_id": "09A7143895BB33A48825824E0079857D"
		}
	},{
		"type": "Feature",
		"geometry": {
			"type": "Point",
			"coordinates": [-122.6039600, 45.5226100]
		},
		"properties": {
			"rest_name": "Leikam Brewing"
			,"address": "5812 NE  Burnside "
			,"rest_type": "Restaurant"
			,"rest_status": "Pending"
			,"last_inspection": "Oct 8, 2019"
			,"avg_score": "100"
			,"last_score": "100"
			,"rest_id": "09B20C25FE6A20C3882584930065016C"
		}
	},{
		"type": "Feature",
		"geometry": {
			"type": "Point",
			"coordinates": [-122.6761200, 45.5234499]
		},
		"properties": {
			"rest_name": "Roseland Theatre"
			,"address": "8 NW  6th Ave "
			,"rest_type": "Restaurant"
			,"rest_status": "Permitted"
			,"last_inspection": "Jun 6, 2018"
			,"avg_score": "98"
			,"last_score": "100"
			,"rest_id": "09D671FEDD7651FE8825824E007970A6"
		}
	},{
		"type": "Feature",
		"geometry": {
			"type": "Point",
			"coordinates": [-122.3857058, 45.5188751]
		},
		"properties": {
			"rest_name": "Sunburst Play Cafe"
			,"address": "26950 SE  Stark St "
			,"rest_type": "Restaurant"
			,"rest_status": "Permitted"
			,"last_inspection": "Nov 6, 2018"
			,"avg_score": "100"
			,"last_score": "100"
			,"rest_id": "09ECC0446E64E63A8825824E00798D9A"
		}
	},{
		"type": "Feature",
		"geometry": {
			"type": "Point",
			"coordinates": [-122.6619900, 45.5610500]
		},
		"properties": {
			"rest_name": "Elevated Coffee"
			,"address": "5261 NE  Martin Luther King Jr Blvd "
			,"rest_type": "Restaurant"
			,"rest_status": "Permitted"
			,"last_inspection": "Jul 20, 2018"
			,"avg_score": "95"
			,"last_score": "90"
			,"rest_id": "09EDEAFA027C6EB28825824E00797D89"
		}
	},{
		"type": "Feature",
		"geometry": {
			"type": "Point",
			"coordinates": [-122.6107100, 45.5050900]
		},
		"properties": {
			"rest_name": "DC Vegetarian"
			,"address": "5026 SE  Division St "
			,"rest_type": "Restaurant"
			,"rest_status": "Permitted"
			,"last_inspection": "May 30, 2018"
			,"avg_score": "91"
			,"last_score": "0"
			,"rest_id": "0A0FAC3831D108A88825824E00797563"
		}
	},{
		"type": "Feature",
		"geometry": {
			"type": "Point",
			"coordinates": [-122.6582900, 45.5360000]
		},
		"properties": {
			"rest_name": "Belle Foodservice"
			,"address": "714 NE  Hancock St Ste 107 "
			,"rest_type": "Restaurant"
			,"rest_status": "Permitted"
			,"last_inspection": "Jul 12, 2018"
			,"avg_score": "92"
			,"last_score": "0"
			,"rest_id": "0A121C8F617185A58825824E00798A67"
		}
	},{
		"type": "Feature",
		"geometry": {
			"type": "Point",
			"coordinates": [-122.7598100, 45.5948700]
		},
		"properties": {
			"rest_name": "Ranger Tavern"
			,"address": "9520 N  Lombard St "
			,"rest_type": "Restaurant"
			,"rest_status": "Permitted"
			,"last_inspection": "Jun 20, 2018"
			,"avg_score": "96"
			,"last_score": "79"
			,"rest_id": "0A1D39AF99ADF4898825824E00796EBD"
		}
	},{
		"type": "Feature",
		"geometry": {
			"type": "Point",
			"coordinates": [-122.4303400, 45.5042500]
		},
		"properties": {
			"rest_name": "Pizza Guys"
			,"address": "64 NE  Division St "
			,"rest_type": "Restaurant"
			,"rest_status": "Permitted"
			,"last_inspection": "Sep 13, 2018"
			,"avg_score": "92"
			,"last_score": "84"
			,"rest_id": "0A275FD920EC6B578825824E0079849F"
		}
	},{
		"type": "Feature",
		"geometry": {
			"type": "Point",
			"coordinates": [-122.6807700, 45.5204000]
		},
		"properties": {
			"rest_name": "Boom Crepe, Class IV"
			,"rest_type": "Class 4"
			,"rest_status": "Permitted"
			,"last_inspection": "Aug 31, 2018"
			,"avg_score": "78"
			,"last_score": "0"
			,"rest_id": "0A2A1E28B3ACD0F38825824E00797A40"
		}
	},{
		"type": "Feature",
		"geometry": {
			"type": "Point",
			"coordinates": [-122.4513020, 45.5432935]
		},
		"properties": {
			"rest_name": "Joses Mobile Catering"
			,"address": "2710 NE  205th Ave "
			,"rest_type": "Class 1"
			,"rest_status": "Permitted"
			,"last_inspection": "Nov 24, 2015"
			,"last_score": "0"
			,"rest_id": "0A31DAF2E434BD2B8825824E007975D2"
		}
	},{
		"type": "Feature",
		"geometry": {
			"type": "Point",
			"coordinates": [-122.7171700, 45.5078500]
		},
		"properties": {
			"rest_name": "Oregon Zoo Beer & Wine Cart"
			,"address": "4001 SW  Canyon Rd "
			,"rest_type": "Class 2"
			,"rest_status": "Permitted"
			,"last_inspection": "Jun 20, 2018"
			,"avg_score": "98"
			,"last_score": "0"
			,"rest_id": "0A35737C78C5787E8825824E007989E2"
		}
	},{
		"type": "Feature",
		"geometry": {
			"type": "Point",
			"coordinates": [-122.6732500, 45.5173700]
		},
		"properties": {
			"rest_name": "Bottle and Kitchen"
			,"address": "50 SW  Morrison St "
			,"rest_type": "Restaurant"
			,"rest_status": "Permitted"
			,"last_inspection": "Aug 7, 2018"
			,"avg_score": "83"
			,"last_score": "0"
			,"rest_id": "0A4A93A95AB1BA768825824E00796D67"
		}
	},{
		"type": "Feature",
		"geometry": {
			"type": "Point",
			"coordinates": [-122.4377900, 45.5346500]
		},
		"properties": {
			"rest_name": "Stomping Grounds Coffee House"
			,"address": "21825 NE  Halsey St "
			,"rest_type": "Restaurant"
			,"rest_status": "Permitted"
			,"last_inspection": "Oct 12, 2018"
			,"avg_score": "95"
			,"last_score": "0"
			,"rest_id": "0A5BF5CA309A2AB88825824E00797CE3"
		}
	},{
		"type": "Feature",
		"geometry": {
			"type": "Point",
			"coordinates": [-122.6518200, 45.5352800]
		},
		"properties": {
			"rest_name": "Milos City Caf"
			,"address": "1325 NE  Broadway "
			,"rest_type": "Restaurant"
			,"rest_status": "Permitted"
			,"last_inspection": "May 31, 2018"
			,"avg_score": "96"
			,"last_score": "100"
			,"rest_id": "0A60E3898B0E3FDF8825824E0079727B"
		}
	},{
		"type": "Feature",
		"geometry": {
			"type": "Point",
			"coordinates": [-122.6677700, 45.5317000]
		},
		"properties": {
			"rest_name": "Levy Concession Stand 502 Crafters,"
			,"address": "1 N  Center Court St "
			,"rest_type": "Restaurant"
			,"rest_status": "Permitted"
			,"last_inspection": "Feb 8, 2018"
			,"avg_score": "99"
			,"last_score": "100"
			,"rest_id": "0A680671BD27BE158825824E007974FA"
		}
	},{
		"type": "Feature",
		"geometry": {
			"type": "Point",
			"coordinates": [-122.6511000, 45.5175500]
		},
		"properties": {
			"rest_name": "Nostrana"
			,"address": "1401 SE  Morrison St "
			,"rest_type": "Restaurant"
			,"rest_status": "Permitted"
			,"last_inspection": "Aug 23, 2018"
			,"avg_score": "93"
			,"last_score": "89"
			,"rest_id": "0A6E9474E9E3098D8825824E00797A58"
		}
	},{
		"type": "Feature",
		"geometry": {
			"type": "Point",
			"coordinates": [-122.6570100, 45.5147100]
		},
		"properties": {
			"rest_name": "Portland Pupusas and Taqueria"
			,"address": "831 SE  Salmon St "
			,"rest_type": "Restaurant"
			,"rest_status": "Permitted"
			,"last_inspection": "Feb 13, 2019"
			,"avg_score": "100"
			,"last_score": "100"
			,"rest_id": "0A88469611BA287F8825836A00706D5A"
		}
	},{
		"type": "Feature",
		"geometry": {
			"type": "Point",
			"coordinates": [-122.6757400, 45.5235700]
		},
		"properties": {
			"rest_name": "Silver Dollar Pizza II"
			,"address": "19 NW  5th Ave "
			,"rest_type": "Restaurant"
			,"rest_status": "Permitted"
			,"last_inspection": "Jul 5, 2018"
			,"avg_score": "97"
			,"last_score": "95"
			,"rest_id": "0A9E70F500A5D05B8825824E00796F54"
		}
	},{
		"type": "Feature",
		"geometry": {
			"type": "Point",
			"coordinates": [-122.6877300, 45.5302300]
		},
		"properties": {
			"rest_name": "Le Happy Creperie & bar"
			,"address": "1011 NW  16th Ave "
			,"rest_type": "Restaurant"
			,"rest_status": "Permitted"
			,"last_inspection": "Aug 24, 2018"
			,"avg_score": "98"
			,"last_score": "100"
			,"rest_id": "0AAED969358C6AFC8825824E0079728E"
		}
	},{
		"type": "Feature",
		"geometry": {
			"type": "Point",
			"coordinates": [-122.5781100, 45.5079200]
		},
		"properties": {
			"rest_name": "Jin Jin"
			,"address": "8220 SE  Harrison St "
			,"rest_type": "Restaurant"
			,"rest_status": "Permitted"
			,"last_inspection": "Oct 9, 2018"
			,"avg_score": "99"
			,"last_score": "100"
			,"rest_id": "0ABDDD8F9BF21E738825824E007978A5"
		}
	},{
		"type": "Feature",
		"geometry": {
			"type": "Point",
			"coordinates": [-122.6537000, 45.5122000]
		},
		"properties": {
			"rest_name": "Tahrir Square Egyption Cuisine Warehouse,"
			,"rest_type": "Warehouse"
			,"rest_status": "Permitted"
			,"last_inspection": "Nov 25, 2017"
			,"last_score": "0"
			,"rest_id": "0AD50234C100F6128825824E00798728"
		}
	},{
		"type": "Feature",
		"geometry": {
			"type": "Point",
			"coordinates": [-122.4706100, 45.5208299]
		},
		"properties": {
			"rest_name": "Burnside Chicken & Teriyaki"
			,"address": "18727 E  Burnside St "
			,"rest_type": "Restaurant"
			,"rest_status": "Permitted"
			,"last_inspection": "Jun 22, 2018"
			,"avg_score": "94"
			,"last_score": "100"
			,"rest_id": "0AF3431D90606ADC8825824E00797432"
		}
	},{
		"type": "Feature",
		"geometry": {
			"type": "Point",
			"coordinates": [-122.6087200, 45.4959400]
		},
		"properties": {
			"rest_name": "Jurassic Cart"
			,"address": "5205 SE  Foster Rd "
			,"rest_type": "Class 4"
			,"rest_status": "Permitted"
			,"last_inspection": "Feb 15, 2018"
			,"last_score": "0"
			,"rest_id": "0B0901820385A23D8825824E00798735"
		}
	},{
		"type": "Feature",
		"geometry": {
			"type": "Point",
			"coordinates": [-122.7616300, 45.5937200]
		},
		"properties": {
			"rest_name": "Your Inn Tavern"
			,"address": "7004 N  Catlin Ave "
			,"rest_type": "Restaurant"
			,"rest_status": "Permitted"
			,"last_inspection": "Jul 5, 2018"
			,"avg_score": "95"
			,"last_score": "100"
			,"rest_id": "0B2B048890DF14418825824E00796D63"
		}
	},{
		"type": "Feature",
		"geometry": {
			"type": "Point",
			"coordinates": [-122.6499800, 45.5348000]
		},
		"properties": {
			"rest_name": "Starbucks Coffee, #409"
			,"address": "1510 NE  Broadway "
			,"rest_type": "Restaurant"
			,"rest_status": "Permitted"
			,"last_inspection": "Mar 22, 2018"
			,"avg_score": "100"
			,"last_score": "100"
			,"rest_id": "0B3B14803FF5DD358825824E007971F3"
		}
	},{
		"type": "Feature",
		"geometry": {
			"type": "Point",
			"coordinates": [-122.6876900, 45.5281300]
		},
		"properties": {
			"rest_name": "Yurs Restaurant and Lounge"
			,"address": "717 NW  16th Ave "
			,"rest_type": "Restaurant"
			,"rest_status": "Permitted"
			,"last_inspection": "Nov 14, 2018"
			,"avg_score": "93"
			,"last_score": "95"
			,"rest_id": "0B42538376C5A0358825824E00796D3F"
		}
	},{
		"type": "Feature",
		"geometry": {
			"type": "Point",
			"coordinates": [-122.6849300, 45.5768900]
		},
		"properties": {
			"rest_name": "Northside Restaurant and Lounge"
			,"address": "1730 N  Lombard St "
			,"rest_type": "Restaurant"
			,"rest_status": "Permitted"
			,"last_inspection": "Oct 3, 2018"
			,"avg_score": "98"
			,"last_score": "0"
			,"rest_id": "0B455F2304B5803C8825824E007971DC"
		}
	},{
		"type": "Feature",
		"geometry": {
			"type": "Point",
			"coordinates": [-122.6514596, 45.5337549]
		},
		"properties": {
			"rest_name": "Subway 22509 LLoyd Center FC"
			,"address": "2305  Lloyd Center "
			,"rest_type": "Restaurant"
			,"rest_status": "Permitted"
			,"last_inspection": "Nov 19, 2018"
			,"avg_score": "95"
			,"last_score": "100"
			,"rest_id": "0B4F7DEF603632308825824E007971CF"
		}
	},{
		"type": "Feature",
		"geometry": {
			"type": "Point",
			"coordinates": [-122.6370000, 45.5224900]
		},
		"properties": {
			"rest_name": "Paa Dee"
			,"address": "6 SE  28th Ave "
			,"rest_type": "Restaurant"
			,"rest_status": "Permitted"
			,"last_inspection": "Aug 29, 2018"
			,"avg_score": "89"
			,"last_score": "100"
			,"rest_id": "0B7F0ED4C77AAEE88825824E007980DC"
		}
	},{
		"type": "Feature",
		"geometry": {
			"type": "Point",
			"coordinates": [-122.6807700, 45.5204000]
		},
		"properties": {
			"rest_name": "Banh Mi Up"
			,"rest_type": "Class 4"
			,"rest_status": "Permitted"
			,"last_inspection": "Nov 13, 2018"
			,"last_score": "0"
			,"rest_id": "0B947198B27C34FF88258305007F28C7"
		}
	},{
		"type": "Feature",
		"geometry": {
			"type": "Point",
			"coordinates": [-122.6216600, 45.5356700]
		},
		"properties": {
			"rest_name": "Columbia River Brewing Co"
			,"address": "1728 NE  40th Ave "
			,"rest_type": "Restaurant"
			,"rest_status": "Permitted"
			,"last_inspection": "Nov 19, 2018"
			,"avg_score": "90"
			,"last_score": "90"
			,"rest_id": "0BB1C314E9CE10E48825824E007976C9"
		}
	},{
		"type": "Feature",
		"geometry": {
			"type": "Point",
			"coordinates": [-122.6758700, 45.5480300]
		},
		"properties": {
			"rest_name": "Bubby's"
			,"address": "3503 N  Mississippi Ave "
			,"rest_type": "Class 3"
			,"rest_status": "Permitted"
			,"last_inspection": "Oct 11, 2018"
			,"last_score": "0"
			,"rest_id": "0BC26343F3DEA8018825824E00798DE8"
		}
	},{
		"type": "Feature",
		"geometry": {
			"type": "Point",
			"coordinates": [-122.6365131, 45.5336294]
		},
		"properties": {
			"rest_name": "An Affair To Remember"
			,"address": "2818 NE  Halsey St "
			,"rest_type": "Restaurant"
			,"rest_status": "Permitted"
			,"last_inspection": "May 16, 2018"
			,"avg_score": "98"
			,"last_score": "0"
			,"rest_id": "0C059831B0041AFC8825824E007982D8"
		}
	},{
		"type": "Feature",
		"geometry": {
			"type": "Point",
			"coordinates": [-122.7556400, 45.5905700]
		},
		"properties": {
			"rest_name": "Affogato Gelato"
			,"address": "8712 N  Lombard St "
			,"rest_type": "Restaurant"
			,"rest_status": "Permitted"
			,"last_inspection": "Mar 29, 2018"
			,"avg_score": "98"
			,"last_score": "92"
			,"rest_id": "0C18ED2AA30C9EA18825824E00797FD3"
		}
	},{
		"type": "Feature",
		"geometry": {
			"type": "Point",
			"coordinates": [-122.6829323, 45.5113998]
		},
		"properties": {
			"rest_name": "Best Baguette"
			,"address": "1833 SW  6th Ave "
			,"rest_type": "Restaurant"
			,"rest_status": "Permitted"
			,"last_inspection": "Nov 14, 2018"
			,"avg_score": "91"
			,"last_score": "92"
			,"rest_id": "0C1C04CD79AA0AEA8825824E00798D7E"
		}
	},{
		"type": "Feature",
		"geometry": {
			"type": "Point",
			"coordinates": [-122.6545700, 45.4641000]
		},
		"properties": {
			"rest_name": "STRAITS KITCHEN"
			,"address": "1112 SE  Tacoma St "
			,"rest_type": "Class 4"
			,"rest_status": "Permitted"
			,"last_inspection": "Nov 17, 2017"
			,"avg_score": "100"
			,"last_score": "100"
			,"rest_id": "0C4FFC71DC981FC38825824E007987A5"
		}
	},{
		"type": "Feature",
		"geometry": {
			"type": "Point",
			"coordinates": [-122.5795800, 45.5287800]
		},
		"properties": {
			"rest_name": "Delilahs Catering"
			,"address": "850 NE  81st Ave "
			,"rest_type": "Restaurant"
			,"rest_status": "Permitted"
			,"last_inspection": "Apr 26, 2018"
			,"avg_score": "100"
			,"last_score": "100"
			,"rest_id": "0C6C615DCF3C0AE08825824E007980C3"
		}
	},{
		"type": "Feature",
		"geometry": {
			"type": "Point",
			"coordinates": [-122.6889000, 45.5231100]
		},
		"properties": {
			"rest_name": "Marathon Tavern"
			,"address": "1735 W  Burnside St "
			,"rest_type": "Restaurant"
			,"rest_status": "Permitted"
			,"last_inspection": "Aug 1, 2018"
			,"avg_score": "99"
			,"last_score": "95"
			,"rest_id": "0CA56E224E25436E8825824E00796BE3"
		}
	},{
		"type": "Feature",
		"geometry": {
			"type": "Point",
			"coordinates": [-122.6737800, 45.5097499]
		},
		"properties": {
			"rest_name": "Little River Cafe"
			,"address": "315 SW  Montgomery St "
			,"rest_type": "Restaurant"
			,"rest_status": "Permitted"
			,"last_inspection": "Jul 11, 2018"
			,"avg_score": "92"
			,"last_score": "100"
			,"rest_id": "0CA77BF0BE0BBB988825824E00797018"
		}
	},{
		"type": "Feature",
		"geometry": {
			"type": "Point",
			"coordinates": [-122.6593000, 45.5345700]
		},
		"properties": {
			"rest_name": "Mashita Teriyaki, #1"
			,"address": "1612 NE  6th Ave "
			,"rest_type": "Restaurant"
			,"rest_status": "Permitted"
			,"last_inspection": "Apr 17, 2018"
			,"avg_score": "92"
			,"last_score": "90"
			,"rest_id": "0CA993F7F84701398825824E00797634"
		}
	},{
		"type": "Feature",
		"geometry": {
			"type": "Point",
			"coordinates": [-122.6873500, 45.5828900]
		},
		"properties": {
			"rest_name": "Derby"
			,"address": "8237 N  Denver Ave "
			,"rest_type": "Restaurant"
			,"rest_status": "Permitted"
			,"last_inspection": "Jun 25, 2018"
			,"avg_score": "100"
			,"last_score": "100"
			,"rest_id": "0CBDAEC410A075DC8825828000819D3B"
		}
	},{
		"type": "Feature",
		"geometry": {
			"type": "Point",
			"coordinates": [-122.6814448, 45.5098140]
		},
		"properties": {
			"rest_name": "Thai Pasta Cart Warehouse"
			,"address": "1901 SW  4th Avenue "
			,"rest_type": "Warehouse"
			,"rest_status": "Permitted"
			,"last_inspection": "Jul 26, 2019"
			,"last_score": "0"
			,"rest_id": "0CD40A04A5715B0B8825840100648F85"
		}
	},{
		"type": "Feature",
		"geometry": {
			"type": "Point",
			"coordinates": [-122.5125700, 45.5184400]
		},
		"properties": {
			"rest_name": "El Catrin, Class lV"
			,"address": "600 SE  146th Ave "
			,"rest_type": "Class 4"
			,"rest_status": "Permitted"
			,"last_inspection": "Aug 9, 2018"
			,"avg_score": "97"
			,"last_score": "0"
			,"rest_id": "0CE84B69002D2C698825824E007983B0"
		}
	},{
		"type": "Feature",
		"geometry": {
			"type": "Point",
			"coordinates": [-122.6873400, 45.5833299]
		},
		"properties": {
			"rest_name": "Kenton Station"
			,"address": "8303 N  Denver Ave "
			,"rest_type": "Restaurant"
			,"rest_status": "Permitted"
			,"last_inspection": "Aug 29, 2018"
			,"avg_score": "96"
			,"last_score": "95"
			,"rest_id": "0CEBD8735F46E8CA8825824E0079728B"
		}
	},{
		"type": "Feature",
		"geometry": {
			"type": "Point",
			"coordinates": [-122.6592500, 45.5140100]
		},
		"properties": {
			"rest_name": "Tight Tacos #2,"
			,"address": "602 SE  Salmon St "
			,"rest_type": "Class 4"
			,"rest_status": "Permitted"
			,"last_inspection": "Mar 8, 2018"
			,"last_score": "0"
			,"rest_id": "0D0607F3B26B196A8825824E00798D72"
		}
	},{
		"type": "Feature",
		"geometry": {
			"type": "Point",
			"coordinates": [-122.4180951, 45.5408601]
		},
		"properties": {
			"rest_name": "Yazzis Bar and Grill"
			,"address": "2500 NE  238th Dr "
			,"rest_type": "Restaurant"
			,"rest_status": "Permitted"
			,"last_inspection": "Oct 10, 2018"
			,"avg_score": "94"
			,"last_score": "95"
			,"rest_id": "0D196EA4B23710828825824E0079752F"
		}
	},{
		"type": "Feature",
		"geometry": {
			"type": "Point",
			"coordinates": [-122.6797286, 45.5627949]
		},
		"properties": {
			"rest_name": "Up North Surf Club"
			,"address": "1229 N  Killingsworth St "
			,"rest_type": "Restaurant"
			,"rest_status": "Permitted"
			,"last_inspection": "Oct 10, 2018"
			,"avg_score": "99"
			,"last_score": "100"
			,"rest_id": "0D2067DD8E45D3B88825824E00798ABD"
		}
	},{
		"type": "Feature",
		"geometry": {
			"type": "Point",
			"coordinates": [-122.6436600, 45.5589100]
		},
		"properties": {
			"rest_name": "American Legion 134 The Poppy Lounge"
			,"address": "2104 NE  Alberta St "
			,"rest_type": "Restaurant"
			,"rest_status": "Permitted"
			,"last_inspection": "Oct 11, 2018"
			,"avg_score": "96"
			,"last_score": "94"
			,"rest_id": "0D22FB9DDE94FE2F8825824E00796BC7"
		}
	},{
		"type": "Feature",
		"geometry": {
			"type": "Point",
			"coordinates": [-122.6604700, 45.5081800]
		},
		"properties": {
			"rest_name": "Goodwill Industries"
			,"address": "1943 SE  6th Ave "
			,"rest_type": "Restaurant"
			,"rest_status": "Permitted"
			,"last_inspection": "Jul 19, 2018"
			,"avg_score": "97"
			,"last_score": "100"
			,"rest_id": "0D2A665A9DA2963C8825824E00797434"
		}
	},{
		"type": "Feature",
		"geometry": {
			"type": "Point",
			"coordinates": [-122.7036500, 45.4337500]
		},
		"properties": {
			"rest_name": "Flying Pie Pizzeria"
			,"address": "3  Monroe Pkwy Ste S "
			,"rest_type": "Restaurant"
			,"rest_status": "Permitted"
			,"last_inspection": "Jul 19, 2018"
			,"avg_score": "93"
			,"last_score": "90"
			,"rest_id": "0D49741F1B1494238825824E0079700F"
		}
	},{
		"type": "Feature",
		"geometry": {
			"type": "Point",
			"coordinates": [-122.6554900, 45.5119900]
		},
		"properties": {
			"rest_name": "Toffee Club"
			,"address": "1008 SE  Hawthorne Blvd "
			,"rest_type": "Restaurant"
			,"rest_status": "Permitted"
			,"last_inspection": "Oct 25, 2018"
			,"avg_score": "98"
			,"last_score": "97"
			,"rest_id": "0D87F139C68A41D38825824E0079895D"
		}
	},{
		"type": "Feature",
		"geometry": {
			"type": "Point",
			"coordinates": [-122.6437900, 45.5050300]
		},
		"properties": {
			"rest_name": "Nuestra Cocina"
			,"address": "2135 SE  Division St "
			,"rest_type": "Restaurant"
			,"rest_status": "Permitted"
			,"last_inspection": "Sep 14, 2018"
			,"avg_score": "89"
			,"last_score": "92"
			,"rest_id": "0D8A31ED556712608825824E00797994"
		}
	},{
		"type": "Feature",
		"geometry": {
			"type": "Point",
			"coordinates": [-122.6806700, 45.5184799]
		},
		"properties": {
			"rest_name": "Flying Elephants"
			,"address": "812 SW  Park Ave "
			,"rest_type": "Restaurant"
			,"rest_status": "Permitted"
			,"last_inspection": "Sep 4, 2018"
			,"avg_score": "97"
			,"last_score": "89"
			,"rest_id": "0DC9B0170808D5738825824E007969D4"
		}
	},{
		"type": "Feature",
		"geometry": {
			"type": "Point",
			"coordinates": [-122.6806700, 45.5184799]
		},
		"properties": {
			"rest_name": "Honey Baked Ham"
			,"address": "5331 SW  Macadam Ave # 276 "
			,"rest_type": "Restaurant"
			,"rest_status": "Permitted"
			,"last_inspection": "May 7, 2018"
			,"avg_score": "97"
			,"last_score": "92"
			,"rest_id": "0DDB7B4D1B1ABEF08825824E00796AE9"
		}
	},{
		"type": "Feature",
		"geometry": {
			"type": "Point",
			"coordinates": [-122.6806700, 45.5184799]
		},
		"properties": {
			"rest_name": "Meals on Wheels People Cherry Blossom"
			,"address": "740 SE  106th Ave "
			,"rest_type": "Restaurant"
			,"rest_status": "Permitted"
			,"last_inspection": "Oct 4, 2018"
			,"avg_score": "98"
			,"last_score": "0"
			,"rest_id": "0DE781A7E2033EC68825824E007975A0"
		}
	},{
		"type": "Feature",
		"geometry": {
			"type": "Point",
			"coordinates": [-122.6806700, 45.5184799]
		},
		"properties": {
			"rest_name": "Grants Philly Cheese Steak"
			,"address": "15350 NE  Sandy Blvd A "
			,"rest_type": "Restaurant"
			,"rest_status": "Permitted"
			,"last_inspection": "Nov 29, 2018"
			,"avg_score": "99"
			,"last_score": "95"
			,"rest_id": "0DE8B3FFE722FC2C8825824E00797840"
		}
	},{
		"type": "Feature",
		"geometry": {
			"type": "Point",
			"coordinates": [-122.6806700, 45.5184799]
		},
		"properties": {
			"rest_name": "Native American Student and Community Center PSU"
			,"address": "710 SW  Jackson St "
			,"rest_type": "Restaurant"
			,"rest_status": "Permitted"
			,"last_inspection": "Aug 16, 2018"
			,"avg_score": "99"
			,"last_score": "100"
			,"rest_id": "0E0B320DC9889FEE8825824E007976BF"
		}
	},{
		"type": "Feature",
		"geometry": {
			"type": "Point",
			"coordinates": [-122.7171700, 45.5078500]
		},
		"properties": {
			"rest_name": "Zoo Cascade Grill-Cascade to go - Banquet Kitchen"
			,"address": "4001 SW  Canyon Rd "
			,"rest_type": "Restaurant"
			,"rest_status": "Permitted"
			,"last_inspection": "Feb 21, 2019"
			,"avg_score": "100"
			,"last_score": "100"
			,"rest_id": "0E1604738EB651D1882583870051A354"
		}
	},{
		"type": "Feature",
		"geometry": {
			"type": "Point",
			"coordinates": [-122.6806700, 45.5184799]
		},
		"properties": {
			"rest_name": "Crazy Chicken Bento"
			,"address": "3600 NW  Yeon Ave "
			,"rest_type": "Class 4"
			,"rest_status": "Permitted"
			,"last_inspection": "Oct 16, 2018"
			,"avg_score": "92"
			,"last_score": "0"
			,"rest_id": "0E2E5E0886D9A54E8825824E00798091"
		}
	},{
		"type": "Feature",
		"geometry": {
			"type": "Point",
			"coordinates": [-122.6806700, 45.5184799]
		},
		"properties": {
			"rest_name": "Arbys, #1488"
			,"address": "520 NE  Burnside Rd "
			,"rest_type": "Restaurant"
			,"rest_status": "Permitted"
			,"last_inspection": "Sep 25, 2018"
			,"avg_score": "97"
			,"last_score": "95"
			,"rest_id": "0E368DA0DF6192008825824E00796C1E"
		}
	},{
		"type": "Feature",
		"geometry": {
			"type": "Point",
			"coordinates": [-122.6806700, 45.5184799]
		},
		"properties": {
			"rest_name": "Mocha Mama"
			,"address": "10100 NE  Prescott St "
			,"rest_type": "Restaurant"
			,"rest_status": "Surveillance"
			,"last_inspection": "Jul 10, 2018"
			,"avg_score": "100"
			,"last_score": "0"
			,"rest_id": "0E3ABDA045E117CB8825824E0079768A"
		}
	},{
		"type": "Feature",
		"geometry": {
			"type": "Point",
			"coordinates": [-122.6755600, 45.5210800]
		},
		"properties": {
			"rest_name": "Tandoor"
			,"address": "406 SW  Oak St "
			,"rest_type": "Restaurant"
			,"rest_status": "Permitted"
			,"last_inspection": "Jul 26, 2018"
			,"avg_score": "99"
			,"last_score": "100"
			,"rest_id": "0E3E8B54329E3CC08825824E007972D3"
		}
	},{
		"type": "Feature",
		"geometry": {
			"type": "Point",
			"coordinates": [-122.6610600, 45.5719700]
		},
		"properties": {
			"rest_name": "High Water Mark Lounge and Cafe"
			,"address": "6800 NE  Martin Luther King Jr Blvd "
			,"rest_type": "Restaurant"
			,"rest_status": "Permitted"
			,"last_inspection": "Jul 25, 2018"
			,"avg_score": "96"
			,"last_score": "0"
			,"rest_id": "0E45CCA563E5BFEE8825824E00797A99"
		}
	},{
		"type": "Feature",
		"geometry": {
			"type": "Point",
			"coordinates": [-122.6761400, 45.5214600]
		},
		"properties": {
			"rest_name": "Aybla Mediterraniean Grill, #2"
			,"rest_type": "Class 4"
			,"rest_status": "Out of Business"
			,"last_inspection": "Dec 28, 2017"
			,"avg_score": "98"
			,"last_score": "100"
			,"rest_id": "0E514686A66C03A38825824E007981C1"
		}
	},{
		"type": "Feature",
		"geometry": {
			"type": "Point",
			"coordinates": [-122.7590700, 45.5948800]
		},
		"properties": {
			"rest_name": "St Johns Kitchen"
			,"address": "9501 N  Lombard St "
			,"rest_type": "Restaurant"
			,"rest_status": "Permitted"
			,"last_inspection": "Jun 28, 2018"
			,"avg_score": "88"
			,"last_score": "0"
			,"rest_id": "0E563AD9CD3AD2D38825824E007970DA"
		}
	},{
		"type": "Feature",
		"geometry": {
			"type": "Point",
			"coordinates": [-122.6796600, 45.5199600]
		},
		"properties": {
			"rest_name": "Public Domain"
			,"address": "603 SW  Broadway "
			,"rest_type": "Restaurant"
			,"rest_status": "Permitted"
			,"last_inspection": "Oct 12, 2018"
			,"avg_score": "97"
			,"last_score": "86"
			,"rest_id": "0E6586D364F7D04A8825824E007977E0"
		}
	},{
		"type": "Feature",
		"geometry": {
			"type": "Point",
			"coordinates": [-122.6447200, 45.5050400]
		},
		"properties": {
			"rest_name": "Garden Bar"
			,"address": "2045 SE  Division St "
			,"rest_type": "Restaurant"
			,"rest_status": "Permitted"
			,"last_inspection": "Aug 16, 2018"
			,"avg_score": "94"
			,"last_score": "0"
			,"rest_id": "0E66C931615F033D8825824E00797921"
		}
	},{
		"type": "Feature",
		"geometry": {
			"type": "Point",
			"coordinates": [-122.6611500, 45.5310100]
		},
		"properties": {
			"rest_name": "Dennys, #6800"
			,"address": "425 NE  Hassalo St "
			,"rest_type": "Restaurant"
			,"rest_status": "Permitted"
			,"last_inspection": "May 31, 2018"
			,"avg_score": "94"
			,"last_score": "100"
			,"rest_id": "0E6798D270F441C48825824E00796CF2"
		}
	},{
		"type": "Feature",
		"geometry": {
			"type": "Point",
			"coordinates": [-122.6549200, 45.5238500]
		},
		"properties": {
			"rest_name": "Norse Hall"
			,"address": "111 NE  11th Ave "
			,"rest_type": "Restaurant"
			,"rest_status": "Permitted"
			,"last_inspection": "Feb 13, 2018"
			,"avg_score": "99"
			,"last_score": "100"
			,"rest_id": "0E70972BB56446A88825824E00796F43"
		}
	},{
		"type": "Feature",
		"geometry": {
			"type": "Point",
			"coordinates": [-122.6788100, 45.5172200]
		},
		"properties": {
			"rest_name": "Pizza Schmizza"
			,"address": "512 SW  Taylor St "
			,"rest_type": "Restaurant"
			,"rest_status": "Permitted"
			,"last_inspection": "Jul 23, 2018"
			,"avg_score": "94"
			,"last_score": "89"
			,"rest_id": "0E77FEFB0A0B909A8825824E007978DA"
		}
	},{
		"type": "Feature",
		"geometry": {
			"type": "Point",
			"coordinates": [-122.7568900, 45.5926300]
		},
		"properties": {
			"rest_name": "Super Burrito Espress"
			,"address": "9019 N  Lombard St "
			,"rest_type": "Restaurant"
			,"rest_status": "Permitted"
			,"last_inspection": "Jul 19, 2018"
			,"avg_score": "92"
			,"last_score": "0"
			,"rest_id": "0E8407311387DF378825824E00797041"
		}
	},{
		"type": "Feature",
		"geometry": {
			"type": "Point",
			"coordinates": [-122.6778700, 45.5256700]
		},
		"properties": {
			"rest_name": "Fork It Catering"
			,"address": "337 NW  Broadway "
			,"rest_type": "Restaurant"
			,"rest_status": "Permitted"
			,"last_inspection": "Jul 20, 2018"
			,"avg_score": "100"
			,"last_score": "100"
			,"rest_id": "0E97BB2EEEAB4B608825824E00798AB1"
		}
	},{
		"type": "Feature",
		"geometry": {
			"type": "Point",
			"coordinates": [-122.6087200, 45.4970300]
		},
		"properties": {
			"rest_name": "Ed's Deli"
			,"address": "3534 SE  52nd Ave "
			,"rest_type": "Restaurant"
			,"rest_status": "Permitted"
			,"last_inspection": "Nov 13, 2018"
			,"avg_score": "97"
			,"last_score": "100"
			,"rest_id": "0EA975DFB717053A8825824E00797DE6"
		}
	},{
		"type": "Feature",
		"geometry": {
			"type": "Point",
			"coordinates": [-122.5935651, 45.5060975]
		},
		"properties": {
			"rest_name": "Warner Pacific College"
			,"address": "2304 SE  68th Ave "
			,"rest_type": "Restaurant"
			,"rest_status": "Permitted"
			,"last_inspection": "Apr 18, 2018"
			,"avg_score": "97"
			,"last_score": "95"
			,"rest_id": "0EA9844A2048C0898825824E00797D25"
		}
	},{
		"type": "Feature",
		"geometry": {
			"type": "Point",
			"coordinates": [-122.6911500, 45.5175399]
		},
		"properties": {
			"rest_name": "Ichiza Kitchen"
			,"address": "1628 SW  Jefferson St "
			,"rest_type": "Restaurant"
			,"rest_status": "Permitted"
			,"last_inspection": "Aug 1, 2018"
			,"avg_score": "89"
			,"last_score": "80"
			,"rest_id": "0ECB755C2CAD5BEC8825824E007987CC"
		}
	},{
		"type": "Feature",
		"geometry": {
			"type": "Point",
			"coordinates": [-122.6155000, 45.5485000]
		},
		"properties": {
			"rest_name": "Nohos Hawaiian Cafe"
			,"address": "4627 NE  Fremont St "
			,"rest_type": "Restaurant"
			,"rest_status": "Permitted"
			,"last_inspection": "Apr 20, 2018"
			,"avg_score": "95"
			,"last_score": "92"
			,"rest_id": "0EF6F3794890C7648825824E00797326"
		}
	},{
		"type": "Feature",
		"geometry": {
			"type": "Point",
			"coordinates": [-122.5409500, 45.5684900]
		},
		"properties": {
			"rest_name": "Homewood suites by HIlton"
			,"address": "11936 NE  Glenn Widing Dr "
			,"rest_type": "Restaurant"
			,"rest_status": "Permitted"
			,"last_inspection": "Sep 19, 2018"
			,"avg_score": "99"
			,"last_score": "100"
			,"rest_id": "0EF946C0588585A98825824E0079697F"
		}
	},{
		"type": "Feature",
		"geometry": {
			"type": "Point",
			"coordinates": [-122.6555700, 45.5307600]
		},
		"properties": {
			"rest_name": "Doubletree by Hilton Portland"
			,"address": "1000 NE  Multnomah St "
			,"rest_type": "Restaurant"
			,"rest_status": "Permitted"
			,"last_inspection": "May 10, 2018"
			,"avg_score": "97"
			,"last_score": "95"
			,"rest_id": "0F14E77EA89E78778825824E00797050"
		}
	},{
		"type": "Feature",
		"geometry": {
			"type": "Point",
			"coordinates": [-122.6984200, 45.5248200]
		},
		"properties": {
			"rest_name": "Sunny Day Coffee and Flowers"
			,"rest_type": "Class 4"
			,"rest_status": "Permitted"
			,"last_inspection": "Nov 9, 2018"
			,"avg_score": "97"
			,"last_score": "0"
			,"rest_id": "0F1F07D74CCBB4448825824E007975D0"
		}
	},{
		"type": "Feature",
		"geometry": {
			"type": "Point",
			"coordinates": [-122.4218700, 45.4985300]
		},
		"properties": {
			"rest_name": "Legal Addiction Espresso, Class III"
			,"address": "863 E  Powell Blvd "
			,"rest_type": "Class 3"
			,"rest_status": "Permitted"
			,"last_inspection": "Aug 9, 2018"
			,"avg_score": "100"
			,"last_score": "0"
			,"rest_id": "0F2AAEEB8A4CEABE8825824E007975A4"
		}
	},{
		"type": "Feature",
		"geometry": {
			"type": "Point",
			"coordinates": [-122.6764900, 45.5207900]
		},
		"properties": {
			"rest_name": "American Panda,"
			,"rest_type": "Class 4"
			,"rest_status": "Permitted"
			,"last_inspection": "Aug 30, 2018"
			,"avg_score": "92"
			,"last_score": "0"
			,"rest_id": "0F32A78B99728D838825824E007979FB"
		}
	},{
		"type": "Feature",
		"geometry": {
			"type": "Point",
			"coordinates": [-122.6090000, 45.5334900]
		},
		"properties": {
			"rest_name": "New Deal Cafe"
			,"address": "5250 NE  Halsey St "
			,"rest_type": "Restaurant"
			,"rest_status": "Permitted"
			,"last_inspection": "Apr 18, 2018"
			,"avg_score": "96"
			,"last_score": "100"
			,"rest_id": "0F3AF025442E2A988825824E00797A22"
		}
	},{
		"type": "Feature",
		"geometry": {
			"type": "Point",
			"coordinates": [-122.6489300, 45.5593000]
		},
		"properties": {
			"rest_name": "Skys Kitchen"
			,"address": "1533 NE  Alberta St "
			,"rest_type": "Class 4"
			,"rest_status": "Pending"
			,"last_inspection": "Oct 4, 2018"
			,"last_score": "0"
			,"rest_id": "0F4A326BD449D00B882582FA007D2B02"
		}
	},{
		"type": "Feature",
		"geometry": {
			"type": "Point",
			"coordinates": [-122.6489300, 45.5593000]
		},
		"properties": {
			"rest_name": "Skys Kitchen"
			,"address": "1533 NE  Alberta St "
			,"rest_type": "Class 4"
			,"rest_status": "Permitted"
			,"last_inspection": "Jan 16, 2019"
			,"last_score": "0"
			,"rest_id": "0F4A326BD449D00B8825838400702397"
		}
	},{
		"type": "Feature",
		"geometry": {
			"type": "Point",
			"coordinates": [-122.6489300, 45.5593000]
		},
		"properties": {
			"rest_name": "Skys Kitchen"
			,"address": "1533 NE  Alberta St "
			,"rest_type": "Class 4"
			,"rest_status": "Permitted"
			,"last_inspection": "Jan 16, 2019"
			,"last_score": "0"
			,"rest_id": "0F4A326BD449D00B8825838400702397"
		}
	},{
		"type": "Feature",
		"geometry": {
			"type": "Point",
			"coordinates": [-122.6476600, 45.5766000]
		},
		"properties": {
			"rest_name": "Mocharama Commissary"
			,"address": "1760 NE  Lombard Pl "
			,"rest_type": "Commissary"
			,"rest_status": "Permitted"
			,"last_inspection": "Sep 25, 2018"
			,"avg_score": "100"
			,"last_score": "0"
			,"rest_id": "0F4F3D94859C9F1F8825824E00797DA9"
		}
	},{
		"type": "Feature",
		"geometry": {
			"type": "Point",
			"coordinates": [-122.6149800, 45.5122000]
		},
		"properties": {
			"rest_name": "Cavern The"
			,"address": "4601 SE  Hawthorne Blvd "
			,"rest_type": "Restaurant"
			,"rest_status": "Permitted"
			,"last_inspection": "May 14, 2018"
			,"avg_score": "95"
			,"last_score": "97"
			,"rest_id": "0F5BB23366D5B4EA8825824E00798A87"
		}
	},{
		"type": "Feature",
		"geometry": {
			"type": "Point",
			"coordinates": [-122.6962900, 45.6178100]
		},
		"properties": {
			"rest_name": "Jantzen Beach Cam Shaft Cafe"
			,"address": "3000 N  Hayden Island Dr "
			,"rest_type": "Restaurant"
			,"rest_status": "Permitted"
			,"last_inspection": "Aug 13, 2018"
			,"avg_score": "96"
			,"last_score": "100"
			,"rest_id": "0F647CC9FEFDF09B8825824E0079709B"
		}
	},{
		"type": "Feature",
		"geometry": {
			"type": "Point",
			"coordinates": [-122.6811500, 45.5096200]
		},
		"properties": {
			"rest_name": "Hawaiian Express"
			,"address": "1930 SW  4th Ave "
			,"rest_type": "Restaurant"
			,"rest_status": "Permitted"
			,"last_inspection": "Nov 6, 2018"
			,"avg_score": "95"
			,"last_score": "92"
			,"rest_id": "0F651EE46BDDE5E98825824E00797AE9"
		}
	},{
		"type": "Feature",
		"geometry": {
			"type": "Point",
			"coordinates": [-122.6213300, 45.4980100]
		},
		"properties": {
			"rest_name": "Lighthouse Deli"
			,"address": "3416 SE  39th Ave "
			,"rest_type": "Restaurant"
			,"rest_status": "Permitted"
			,"last_inspection": "Apr 24, 2018"
			,"avg_score": "99"
			,"last_score": "100"
			,"rest_id": "0F74F5DBEA7F3DC58825824E00797DB0"
		}
	},{
		"type": "Feature",
		"geometry": {
			"type": "Point",
			"coordinates": [-122.6986500, 45.5379099]
		},
		"properties": {
			"rest_name": "Dutch Bros Coffee"
			,"address": "2110 NW  23rd Ave "
			,"rest_type": "Restaurant"
			,"rest_status": "Permitted"
			,"last_inspection": "Sep 10, 2018"
			,"avg_score": "99"
			,"last_score": "100"
			,"rest_id": "0F7E57ABF6BD9F3F8825824E007986B0"
		}
	},{
		"type": "Feature",
		"geometry": {
			"type": "Point",
			"coordinates": [-122.6629958, 45.5112449]
		},
		"properties": {
			"rest_name": "Nossa Familia Coffee"
			,"address": "1633 SE  3rd Ave "
			,"rest_type": "Restaurant"
			,"rest_status": "Permitted"
			,"last_inspection": "Jun 15, 2018"
			,"avg_score": "100"
			,"last_score": "100"
			,"rest_id": "0F8C946FEFCAB6468825824E00798C58"
		}
	},{
		"type": "Feature",
		"geometry": {
			"type": "Point",
			"coordinates": [-122.6037900, 45.5523400]
		},
		"properties": {
			"rest_name": "Spirits Pub"
			,"address": "4037 NE  Cully Blvd "
			,"rest_type": "Restaurant"
			,"rest_status": "Permitted"
			,"last_inspection": "May 16, 2018"
			,"avg_score": "100"
			,"last_score": "95"
			,"rest_id": "0F9F9102704BAF2C8825824E00796B6A"
		}
	},{
		"type": "Feature",
		"geometry": {
			"type": "Point",
			"coordinates": [-122.6610900, 45.5345100]
		},
		"properties": {
			"rest_name": "Starbucks Coffee, #3714"
			,"address": "1621 NE  Grand Ave "
			,"rest_type": "Restaurant"
			,"rest_status": "Permitted"
			,"last_inspection": "Oct 12, 2018"
			,"avg_score": "100"
			,"last_score": "100"
			,"rest_id": "0FAD595C4F9594FB8825824E00796CD7"
		}
	},{
		"type": "Feature",
		"geometry": {
			"type": "Point",
			"coordinates": [-122.6437700, 45.5231000]
		},
		"properties": {
			"rest_name": "Sammich"
			,"address": "2137 E  Burnside St "
			,"rest_type": "Restaurant"
			,"rest_status": "Permitted"
			,"last_inspection": "Jul 20, 2018"
			,"avg_score": "96"
			,"last_score": "100"
			,"rest_id": "0FC15509CE0618898825824E007984D1"
		}
	},{
		"type": "Feature",
		"geometry": {
			"type": "Point",
			"coordinates": [-122.5777100, 45.4829999]
		},
		"properties": {
			"rest_name": "Cozmic Coffee, Class IV"
			,"address": "5420 SE  82nd Ave "
			,"rest_type": "Class 3"
			,"rest_status": "Permitted"
			,"last_inspection": "Apr 26, 2018"
			,"avg_score": "90"
			,"last_score": "0"
			,"rest_id": "0FC1E4DE9237FDB78825824E00797B50"
		}
	},{
		"type": "Feature",
		"geometry": {
			"type": "Point",
			"coordinates": [-122.5896800, 45.5477500]
		},
		"properties": {
			"rest_name": "Subway"
			,"address": "7110 NE  Sandy Blvd "
			,"rest_type": "Restaurant"
			,"rest_status": "Permitted"
			,"last_inspection": "Jul 24, 2018"
			,"avg_score": "99"
			,"last_score": "100"
			,"rest_id": "0FC8B831437A52228825824E0079715C"
		}
	},{
		"type": "Feature",
		"geometry": {
			"type": "Point",
			"coordinates": [-122.6408000, 45.5349200]
		},
		"properties": {
			"rest_name": "Metropolitan Community Church Portland"
			,"address": "2400 NE  Broadway "
			,"rest_type": "Restaurant"
			,"rest_status": "Permitted"
			,"last_inspection": "Jan 17, 2018"
			,"avg_score": "99"
			,"last_score": "100"
			,"rest_id": "0FEB4EE9035A03A38825824E00797C1D"
		}
	},{
		"type": "Feature",
		"geometry": {
			"type": "Point",
			"coordinates": [-122.6399800, 45.5035300]
		},
		"properties": {
			"rest_name": "Nohos Hawaiian Cafe"
			,"address": "2525 SE  Clinton St "
			,"rest_type": "Restaurant"
			,"rest_status": "Permitted"
			,"last_inspection": "Apr 26, 2018"
			,"avg_score": "89"
			,"last_score": "0"
			,"rest_id": "0FF07974F8DB8E7A8825824E00796DAD"
		}
	},{
		"type": "Feature",
		"geometry": {
			"type": "Point",
			"coordinates": [-122.6722000, 45.5209400]
		},
		"properties": {
			"rest_name": "Captain Ankeny's Pizza & Pub"
			,"address": "116 SW  Pine St "
			,"rest_type": "Restaurant"
			,"rest_status": "Permitted"
			,"last_inspection": "Jul 16, 2018"
			,"avg_score": "97"
			,"last_score": "92"
			,"rest_id": "1001049417FA8E438825824E00798B4A"
		}
	},{
		"type": "Feature",
		"geometry": {
			"type": "Point",
			"coordinates": [-122.6206400, 45.5050100]
		},
		"properties": {
			"rest_name": "Taqueria Lindo Michoacan"
			,"address": "4035 SE  Division St "
			,"rest_type": "Class 4"
			,"rest_status": "Permitted"
			,"last_inspection": "Mar 8, 2018"
			,"avg_score": "100"
			,"last_score": "100"
			,"rest_id": "102C87EC64C2B0278825824E0079754A"
		}
	},{
		"type": "Feature",
		"geometry": {
			"type": "Point",
			"coordinates": [-122.6823000, 45.5115000]
		},
		"properties": {
			"rest_name": "Cafe Yumm"
			,"address": "1806 SW  6th Ave "
			,"rest_type": "Restaurant"
			,"rest_status": "Permitted"
			,"last_inspection": "Jul 13, 2018"
			,"avg_score": "98"
			,"last_score": "100"
			,"rest_id": "104967C9A32973B78825824E00797FCB"
		}
	},{
		"type": "Feature",
		"geometry": {
			"type": "Point",
			"coordinates": [-122.7422300, 45.5876200]
		},
		"properties": {
			"rest_name": "Beauy Berry, Class III"
			,"address": "7316 N  Lombard St "
			,"rest_type": "Class 3"
			,"rest_status": "Permitted"
			,"last_inspection": "May 25, 2017"
			,"avg_score": "100"
			,"last_score": "100"
			,"rest_id": "104C3858E2557FEA8825824E00798BE3"
		}
	},{
		"type": "Feature",
		"geometry": {
			"type": "Point",
			"coordinates": [-122.5886300, 45.4859700]
		},
		"properties": {
			"rest_name": "Don Churro,"
			,"address": "7238 SE  Foster Rd "
			,"rest_type": "Class 4"
			,"rest_status": "Permitted"
			,"last_inspection": "May 15, 2018"
			,"avg_score": "95"
			,"last_score": "0"
			,"rest_id": "10563B70DDDE3CDA8825824E00798357"
		}
	},{
		"type": "Feature",
		"geometry": {
			"type": "Point",
			"coordinates": [-122.5794000, 45.4712800]
		},
		"properties": {
			"rest_name": "Merendero Estela"
			,"address": "7129 SE  82nd Ave "
			,"rest_type": "Class 4"
			,"rest_status": "Permitted"
			,"last_inspection": "Oct 18, 2016"
			,"last_score": "0"
			,"rest_id": "1061C6125390EC9A8825824E0079887F"
		}
	},{
		"type": "Feature",
		"geometry": {
			"type": "Point",
			"coordinates": [-122.6459400, 45.5272000]
		},
		"properties": {
			"rest_name": "Juiced PDX"
			,"address": "541 NE  20th Ave 100 "
			,"rest_type": "Restaurant"
			,"rest_status": "Out of Business"
			,"last_inspection": "Sep 13, 2018"
			,"avg_score": "95"
			,"last_score": "90"
			,"rest_id": "1067175A6920A6888825824E007972D4"
		}
	},{
		"type": "Feature",
		"geometry": {
			"type": "Point",
			"coordinates": [-122.6440800, 45.5589200]
		},
		"properties": {
			"rest_name": "Boxer Ramen"
			,"address": "2032 NE  Alberta St "
			,"rest_type": "Restaurant"
			,"rest_status": "Permitted"
			,"last_inspection": "Nov 7, 2017"
			,"avg_score": "90"
			,"last_score": "89"
			,"rest_id": "10B44A0D2D5974888825824E00798672"
		}
	},{
		"type": "Feature",
		"geometry": {
			"type": "Point",
			"coordinates": [-122.5792500, 45.5387000]
		},
		"properties": {
			"rest_name": "Taco Bell, #25988"
			,"address": "2247 NE  82nd Ave "
			,"rest_type": "Restaurant"
			,"rest_status": "Permitted"
			,"last_inspection": "Jun 27, 2018"
			,"avg_score": "99"
			,"last_score": "100"
			,"rest_id": "10B830882FC7C3D88825824E00797D95"
		}
	},{
		"type": "Feature",
		"geometry": {
			"type": "Point",
			"coordinates": [-122.7237400, 45.4530300]
		},
		"properties": {
			"rest_name": "Thai Orchid"
			,"address": "10075 SW  Barbur Blvd "
			,"rest_type": "Restaurant"
			,"rest_status": "Permitted"
			,"last_inspection": "Dec 18, 2017"
			,"avg_score": "87"
			,"last_score": "92"
			,"rest_id": "10BBE680799DD13A8825824E00797225"
		}
	},{
		"type": "Feature",
		"geometry": {
			"type": "Point",
			"coordinates": [-122.6960800, 45.5768700]
		},
		"properties": {
			"rest_name": "Sweet Home Bar & Grill"
			,"address": "2824 N  Lombard St "
			,"rest_type": "Restaurant"
			,"rest_status": "Permitted"
			,"last_inspection": "Jun 17, 2019"
			,"avg_score": "95"
			,"last_score": "95"
			,"rest_id": "10BD43ADC49DA6518825842000607B82"
		}
	},{
		"type": "Feature",
		"geometry": {
			"type": "Point",
			"coordinates": [-122.5788349, 45.5035772]
		},
		"properties": {
			"rest_name": "La Catrina Commissary"
			,"address": "2693 SE  82nd Avenue "
			,"rest_type": "Commissary"
			,"rest_status": "Permitted"
			,"last_inspection": "Aug 13, 2018"
			,"last_score": "0"
			,"rest_id": "10D06948E0473869882582C10059A8CE"
		}
	},{
		"type": "Feature",
		"geometry": {
			"type": "Point",
			"coordinates": [-122.4764400, 45.4895500]
		},
		"properties": {
			"rest_name": "Dottys, #23"
			,"address": "901 SW  Highland Dr Sp-k "
			,"rest_type": "Restaurant"
			,"rest_status": "Permitted"
			,"last_inspection": "Sep 14, 2018"
			,"avg_score": "98"
			,"last_score": "95"
			,"rest_id": "10D6A5D2DB3C52BF8825824E00797763"
		}
	},{
		"type": "Feature",
		"geometry": {
			"type": "Point",
			"coordinates": [-122.7082800, 45.4684800]
		},
		"properties": {
			"rest_name": "Meals on Wheels People Central Kitchen"
			,"address": "7710 SW  31st Ave "
			,"rest_type": "Restaurant"
			,"rest_status": "Permitted"
			,"last_inspection": "Oct 24, 2018"
			,"avg_score": "98"
			,"last_score": "100"
			,"rest_id": "10E863FB9A600DCF8825824E007977C5"
		}
	},